t,latitude,longitude,velocity_x_ref,velocity_y_ref,velocity_z_ref,heading,pitch,roll
4.0,0.9773843811169856,-3.5820478741894505e-09,-0.003190367047626985,2.5646005363810787e-07,0.0,0.8522434670166779,9.999376426974187e-05,0.08704983902104438
8.0,0.9773843811185068,-1.074614364248784e-08,-0.006380734112993829,2.422943769189027e-06,0.0,0.8523598371286045,9.997657247868302e-05,0.08704986170702607
12.0,0.9773843811221212,-2.1492198167616225e-08,-0.009571021787821508,5.756866248890492e-06,0.0,0.852476204263166,9.994842153456298e-05,0.08704989995702729
16.0,0.9773843811280956,-3.5820034049363e-08,-0.012761151460298955,9.515539089768803e-06,0.0,0.8525925684173615,9.990930944876026e-05,0.08704995376965868
20.0,0.97738438113623,-5.37293865210923e-08,-0.015951045317091524,1.295618930847934e-05,0.0,0.8527089295882626,9.985923450319927e-05,0.0870500231431463
24.0,0.9773843811458587,-7.521990434845095e-08,-0.01914062634531014,1.5335978269093243e-05,0.0,0.8528252877730146,9.979819525058407e-05,0.08705010807533185
28.0,0.9773843811558489,-1.0029115073024129e-07,-0.022329818334451385,1.5912020612474292e-05,0.0,0.8529416429688343,9.972619051462636e-05,0.08705020856367279
32.0,0.9773843811646019,-1.2894260420142071e-07,-0.02551854587830268,1.3941403192113368e-05,0.0,0.8530579951730088,9.964321939026494e-05,0.08705032460524265
36.0,0.9773843811700523,-1.611736595381932e-07,-0.028706734376816614,8.681204011958565e-06,0.0,0.8531743443828953,9.954928124387948e-05,0.08705045619673106
40.0,0.9773843811696684,-1.9698362866514944e-07,-0.031894310037946405,-6.114888373304115e-07,0.0,0.8532906905959186,9.944437571349821e-05,0.08705060333444406
44.0,0.9773843811604519,-2.3637174156442695e-07,-0.035081199879456244,-1.4679558236621506e-05,0.0,0.8534070338095708,9.932850270899702e-05,0.08705076601430425
48.0,0.9773843811389382,-2.7933714718684423e-07,-0.03826733173069015,-3.426583909771987e-05,0.0,0.8535233740214099,9.92016624122939e-05,0.08705094423185114
52.0,0.9773843811011965,-3.2587891436497695e-07,-0.041452634234313,-6.011309942041977e-05,0.0,0.8536397112290589,9.906385527753483e-05,0.08705113798224111
56.0,0.9773843810428295,-3.7599603272813545e-07,-0.04463703684801455,-9.296402135520952e-05,0.0,0.8537560454302046,9.891508203127425e-05,0.08705134726024794
60.0,0.9773843809589738,-4.296874136192056e-07,-0.0478204698461803,-0.0001335611822574406,0.0,0.8538723766225961,9.875534367264865e-05,0.08705157206026296
64.0,0.9773843808442998,-4.8695189101332e-07,-0.05100286432153237,-0.00018264703574630368,0.0,0.8539887048040437,9.858464147354131e-05,0.08705181237629521
68.0,0.9773843806930118,-5.477882224383159e-07,-0.05418415218673163,-0.00024096389276996217,0.0,0.8541050299724182,9.840297697874362e-05,0.08705206820197187
72.0,0.9773843804988483,-6.121950898969463e-07,-0.057364266175951015,-0.000309253902666652,0.0,0.8542213521256493,9.821035200610671e-05,0.08705233953053844
76.0,0.9773843802550819,-6.801711007908028e-07,-0.06054313984640925,-0.00038825903422887067,0.0,0.854337671261725,9.800676864668632e-05,0.08705262635485903
80.0,0.9773843799545193,-7.517147888459183e-07,-0.06372070757987938,-0.0004787210567724562,0.0,0.8544539873786893,9.779222926488514e-05,0.08705292866741662
84.0,0.9773843795895019,-8.268246150400025e-07,-0.06689690458415319,-0.0005813815212079056,0.0,0.854570300474642,9.756673649858168e-05,0.08705324646031352
88.0,0.9773843791519055,-9.05498968531281e-07,-0.07007166689448008,-0.0006969817411206215,0.0,0.8546866105477376,9.73302932592576e-05,0.08705357972527153
92.0,0.9773843786331405,-9.877361675888938e-07,-0.07324493137496703,-0.0008262627738414506,0.0,0.8548029175961838,9.708290273211449e-05,0.08705392845363236
96.0,0.9773843780241527,-1.0735344605248208e-06,-0.0764166357199492,-0.0009699654015412869,0.0,0.8549192216182399,9.682456837619078e-05,0.08705429263635786
100.0,0.9773843773154224,-1.1628920266272927e-06,-0.07958671845532328,-0.0011288301123142325,0.0,0.8550355226122162,9.655529392445835e-05,0.08705467226403049
104.0,0.9773843764969655,-1.255806977095648e-06,-0.08275511893984663,-0.0013035970812759804,0.0,0.855151820576473,9.627508338392545e-05,0.08705506732685363
108.0,0.9773843755583335,-1.352277355976603e-06,-0.08592177736640634,-0.0014950061516654529,0.0,0.8552681155094193,9.598394103572872e-05,0.08705547781465187
112.0,0.9773843744886133,-1.4523011411018907e-06,-0.08908663476324773,-0.0017037968159554849,0.0,0.8553844074095108,9.568187143521606e-05,0.08705590371687148
116.0,0.9773843732764279,-1.5558762450272352e-06,-0.09224963299517648,-0.0019307081969681353,0.0,0.8555006962752503,9.536887941201947e-05,0.08705634502258075
120.0,0.9773843719099367,-1.6630005159726211e-06,-0.09541071476472063,-0.0021764790289959743,0.0,0.8556169821051847,9.504497007013352e-05,0.08705680172047034
124.0,0.977384370376835,-1.7736717387638209e-06,-0.09856982361326211,-0.002441847638937813,0.0,0.8557332648979052,9.471014878797446e-05,0.08705727379885377
128.0,0.9773843686643554,-1.8878876357751399e-06,-0.10172690392213228,-0.0027275519274391133,0.0,0.8558495446520459,9.436442121843583e-05,0.08705776124566772
132.0,0.9773843667592671,-2.0056458678733456e-06,-0.10488190091367565,-0.0030343293500424418,0.0,0.855965821366282,9.400779328893793e-05,0.08705826404847267
136.0,0.9773843646478768,-2.126944035362734e-06,-0.10803476065227352,-0.0033629168983430905,0.0,0.8560820950393294,9.364027120147518e-05,0.08705878219445297
140.0,0.9773843623160287,-2.2517796789313068e-06,-0.11118543004534484,-0.0037140510811649943,0.0,0.8561983656699428,9.326186143265e-05,0.08705931567041757
144.0,0.9773843597491049,-2.38015028059801e-06,-0.11433385684429893,-0.004088467905739193,0.0,0.856314633256915,9.28725707336968e-05,0.08705986446280038
148.0,0.9773843569320257,-2.5120532646610033e-06,-0.11747998964546635,-0.00448690285889419,0.0,0.8564308977990757,9.24724061305096e-05,0.08706042855766068
152.0,0.9773843538492502,-2.6474859986469162e-06,-0.12062377789098694,-0.004910090888263112,0.0,0.8565471592952899,9.206137492364999e-05,0.08706100794068368
156.0,0.9773843504847759,-2.7864457942610585e-06,-0.1237651718696689,-0.005358766383495256,0.0,0.8566634177444574,9.163948468837024e-05,0.0870616025971809
160.0,0.9773843468221401,-2.9289299083385414e-06,-0.12690412271781137,-0.005833663157486249,0.0,0.8567796731455111,9.120674327459727e-05,0.08706221251209072
164.0,0.9773843428444196,-3.0749355437962735e-06,-0.13004058241999228,-0.0063355144276206355,0.0,0.8568959254974157,9.076315880693388e-05,0.08706283766997876
168.0,0.977384338534231,-3.224459850585793e-06,-0.13317450380982396,-0.006865052797024681,0.0,0.8570121747991674,9.030873968464706e-05,0.08706347805503854
172.0,0.9773843338737317,-3.3774999266468996e-06,-0.13630584057067338,-0.007423010235836968,0.0,0.8571284210497917,8.984349458164692e-05,0.087064133651092
176.0,0.9773843288446198,-3.5340528188620406e-06,-0.13943454723634793,-0.00801011806249192,0.0,0.8572446642483424,8.936743244645804e-05,0.0870648044415897
180.0,0.9773843234281345,-3.6941155240114255e-06,-0.14256057919174792,-0.008627106925017154,0.0,0.8573609043939008,8.888056250219099e-05,0.08706549040961184
184.0,0.977384317605057,-3.8576849897288185e-06,-0.14568389267348422,-0.009274706782349141,0.0,0.8574771414855747,8.838289424649632e-05,0.08706619153786835
188.0,0.9773843113557102,-4.024758115457972e-06,-0.14880444477045837,-0.009953646885660507,0.0,0.8575933755224967,8.787443745151598e-05,0.08706690780869973
192.0,0.9773843046599603,-4.195331753409671e-06,-0.15192219342441438,-0.010664655759711457,0.0,0.8577096065038226,8.735520216383636e-05,0.08706763920407752
196.0,0.9773842974972159,-4.369402709519345e-06,-0.15503709743045602,-0.01140846118420934,0.0,0.8578258344287318,8.682519870441473e-05,0.0870683857056048
200.0,0.9773842898464294,-4.54696774440521e-06,-0.1581491164375237,-0.012185790175190584,0.0,0.8579420592964242,8.628443766852455e-05,0.08706914729451685
204.0,0.9773842816860974,-4.728023574326892e-06,-0.16125821094884002,-0.012997368966418366,0.0,0.8580582811061205,8.573292992566868e-05,0.08706992395168163
208.0,0.9773842729942606,-4.912566872144511e-06,-0.1643643423223237,-0.013843922990803588,0.0,0.8581744998570603,8.517068661949439e-05,0.08707071565760055
212.0,0.9773842637485052,-5.100594268278181e-06,-0.16746747277096805,-0.01472617686183897,0.0,0.8582907155485007,8.459771916771888e-05,0.08707152239240891
216.0,0.9773842539259628,-5.2921023516678764e-06,-0.1705675653631842,-0.015644854355050697,0.0,0.8584069281797163,8.401403926201897e-05,0.08707234413587656
220.0,0.9773842435033112,-5.487087670733642e-06,-0.173664584023107,-0.016600678389481004,0.0,0.8585231377499962,8.341965886793223e-05,0.0870731808674085
224.0,0.9773842324567747,-5.6855467343361e-06,-0.17675849353087328,-0.017594371009179464,0.0,0.858639344258645,8.281459022474002e-05,0.0870740325660456
228.0,0.9773842207621251,-5.887476012737214e-06,-0.17984925952286177,-0.018626653364717714,0.0,0.8587555477049788,8.219884584536418e-05,0.08707489921046511
232.0,0.9773842083946815,-6.092871938561281e-06,-0.18293684849189862,-0.01969824569473335,0.0,0.858871748088327,8.157243851622909e-05,0.0870757807789814
236.0,0.977384195329312,-6.3017309077560995e-06,-0.1860212277874299,-0.020809867307481748,0.0,0.8589879454080295,8.093538129713423e-05,0.08707667724954653
240.0,0.9773841815404333,-6.5140492805542914e-06,-0.18910236561566263,-0.021962236562423774,0.0,0.8591041396634349,8.028768752111533e-05,0.087077588599751
244.0,0.9773841670020118,-6.729823382434723e-06,-0.19218023103966397,-0.02315607085182811,0.0,0.8592203308539018,7.962937079429529e-05,0.08707851480682441
248.0,0.9773841516875641,-6.9490495050839945e-06,-0.19525479397943063,-0.02439208658239663,0.0,0.8593365189787946,7.89604449957358e-05,0.08707945584763602
252.0,0.9773841355701576,-7.171723907357967e-06,-0.19832602521193063,-0.02567099915691821,0.0,0.8594527040374839,7.828092427728207e-05,0.0870804116986957
256.0,0.9773841186224113,-7.397842816243276e-06,-0.20139389637109864,-0.02699352295594206,0.0,0.8595688860293459,7.75908230633824e-05,0.08708138233615428
260.0,0.9773841008164962,-7.627402427818797e-06,-0.20445837994780358,-0.02836037131948043,0.0,0.8596850649537597,7.689015605092677e-05,0.08708236773580456
264.0,0.9773840821241361,-7.860398908217027e-06,-0.20751944928978303,-0.02977225652873089,0.0,0.8598012408101074,7.617893820905374e-05,0.08708336787308187
268.0,0.9773840625166084,-8.096828394585348e-06,-0.2105770786015426,-0.031229889787827994,0.0,0.8599174135977721,7.54571847789784e-05,0.08708438272306483
272.0,0.9773840419647445,-8.336686996047126e-06,-0.2136312429442207,-0.0327339812056177,0.0,0.8600335833161372,7.472491127378424e-05,0.0870854122604761
276.0,0.9773840204389308,-8.579970794662608e-06,-0.21668191823541508,-0.034285239777462506,0.0,0.8601497499645847,7.398213347822981e-05,0.08708645645968309
280.0,0.9773839979091092,-8.826675846389586e-06,-0.21972908124898663,-0.03588437336707077,0.0,0.8602659135424946,7.322886744852326e-05,0.08708751529469878
284.0,0.977383974344778,-9.07679818204378e-06,-0.22277270961481366,-0.037532088688354524,0.0,0.8603820740492439,7.246512951213477e-05,0.08708858873918239
288.0,0.9773839497149922,-9.330333808258914e-06,-0.22581278181852907,-0.03922909128731152,0.0,0.8604982314842041,7.169093626754701e-05,0.08708967676644014
292.0,0.9773839239883649,-9.587278708446438e-06,-0.22884927720120815,-0.04097608552394295,0.0,0.8606143858467418,7.090630458403639e-05,0.08709077934942618
296.0,0.9773838971330677,-9.84762884375485e-06,-0.23188217595903082,-0.04277377455419355,0.0,0.8607305371362158,7.01112516014406e-05,0.08709189646074317
300.0,0.9773838691168315,-1.011138015402861e-05,-0.23491145914291098,-0.04462286031192183,0.0,0.8608466853519777,6.930579472990028e-05,0.08709302807264321
304.0,0.977383839906947,-1.0378528558766565e-05,-0.23793710865808648,-0.04652404349090547,0.0,0.8609628304933692,6.848995164962461e-05,0.08709417415702865
308.0,0.977383809470266,-1.0649069958079895e-05,-0.24095910726367767,-0.048478023526867545,0.0,0.8610789725597217,6.766374031062097e-05,0.08709533468545277
312.0,0.9773837777732021,-1.0923000233649487e-05,-0.24397743857221507,-0.05048549857954384,0.0,0.8611951115503551,6.68271789324293e-05,0.08709650962912076
316.0,0.9773837447817311,-1.1200315249682763e-05,-0.24699208704912887,-0.05254716551477182,0.0,0.8613112474645762,6.59802860038672e-05,0.08709769895889043
320.0,0.977383710461392,-1.148101085386986e-05,-0.2500030380122067,-0.054663719886618126,0.0,0.861427380301678,6.512308028272629e-05,0.0870989026452731
324.0,0.9773836747772885,-1.1765082878339174e-05,-0.25301027763101697,-0.0568358559195366,0.0,0.8615435100609387,6.425558079549988e-05,0.08710012065843446
328.0,0.9773836376940886,-1.2052527140612207e-05,-0.2560137929262991,-0.059064266490553366,0.0,0.8616596367416194,6.337780683709163e-05,0.08710135296819535
332.0,0.9773835991760267,-1.2343339444557669e-05,-0.2590135717693193,-0.061349643111494934,0.0,0.8617757603429645,6.248977797051523e-05,0.0871025995440327
336.0,0.9773835591869036,-1.2637515581344836e-05,-0.2620096028811954,-0.06369267591123845,0.0,0.8618918808641994,6.159151402657543e-05,0.0871038603550803
340.0,0.9773835176900876,-1.2935051330396079e-05,-0.265001875832181,-0.0660940536180068,0.0,0.8620079983045297,6.0683035103566086e-05,0.08710513537012983
344.0,0.9773834746485157,-1.3235942460338563e-05,-0.26799038104092904,-0.06855446354168909,0.0,0.8621241126631403,5.9764361566938816e-05,0.08710642455763162
348.0,0.9773834300246943,-1.3540184729955053e-05,-0.27097510977370404,-0.07107459155620106,0.0,0.8622402239391933,5.8835514048992515e-05,0.0871077278856956
352.0,0.9773833837806999,-1.3847773889133813e-05,-0.2739560541435771,-0.07365512208188064,0.0,0.8623563321318286,5.7896513448523006e-05,0.08710904532209217
356.0,0.9773833358781803,-1.415870567981754e-05,-0.27693320710957964,-0.0762967380679156,0.0,0.862472437240161,5.694738093048458e-05,0.08711037683425307
360.0,0.9773832862783555,-1.4472975836951305e-05,-0.2799065624758247,-0.07900012097481167,0.0,0.8625885392632793,5.598813792563628e-05,0.08711172238927249
364.0,0.9773832349420185,-1.4790580089429468e-05,-0.28287611489059367,-0.08176595075689358,0.0,0.8627046382002466,5.5018806130203586e-05,0.08711308195390774
368.0,0.9773831818295364,-1.5111514161041511e-05,-0.285841859845395,-0.0845949058448472,0.0,0.8628207340500971,5.403940750548461e-05,0.08711445549458037
372.0,0.9773831269008514,-1.5435773771416783e-05,-0.28880379367398157,-0.08748766312829333,0.0,0.8629368268118369,5.304996427751705e-05,0.08711584297737703
376.0,0.9773830701154814,-1.576335463696808e-05,-0.29176191355134273,-0.09044489793840771,0.0,0.8630529164844407,5.2050498936673984e-05,0.08711724436805042
380.0,0.9773830114325217,-1.6094252471834077e-05,-0.29471621749265736,-0.09346728403057207,0.0,0.8631690030668537,5.104103423728742e-05,0.08711865963202028
384.0,0.9773829508106453,-1.6428462988820496e-05,-0.29766670435221576,-0.09655549356706744,0.0,0.8632850865579865,5.002159319726492e-05,0.08712008873437443
388.0,0.9773828882081044,-1.6765981900340058e-05,-0.30061337382231096,-0.09971019709980725,0.0,0.8634011669567175,4.899219909768373e-05,0.08712153163986959
392.0,0.9773828235827309,-1.7106804919351134e-05,-0.3035562264320957,-0.10293206355310842,0.0,0.8635172442618898,4.795287548238826e-05,0.08712298831293235
396.0,0.9773827568919381,-1.7450927760295055e-05,-0.306495263546401,-0.10622176020650273,0.0,0.8636333184723106,4.690364615758075e-05,0.0871244587176604
400.0,0.9773826880927212,-1.7798346140032064e-05,-0.30943048736452894,-0.10957995267759146,0.0,0.8637493895867504,4.584453519139962e-05,0.08712594281782328
404.0,0.9773826171416586,-1.814905577877587e-05,-0.31236190091901295,-0.11300730490493732,0.0,0.8638654576039408,4.477556691349283e-05,0.08712744057686353
408.0,0.977382543994913,-1.8503052401026754e-05,-0.315289508074338,-0.11650447913100057,0.0,0.8639815225225753,4.369676591459978e-05,0.08712895195789766
412.0,0.9773824686082322,-1.8860331736503202e-05,-0.3182133135256338,-0.12007213588511816,0.0,0.8640975843413055,4.2608157046088166e-05,0.08713047692371709
416.0,0.9773823909369505,-1.9220889521072034e-05,-0.32113332279733564,-0.12371093396652141,0.0,0.8642136430587425,4.150976541952543e-05,0.08713201543678933
420.0,0.9773823109359896,-1.9584721497676966e-05,-0.3240495422418126,-0.1274215304273999,0.0,0.8643296986734541,4.0401616406220827e-05,0.08713356745925897
424.0,0.9773822285598599,-1.9951823417265605e-05,-0.3269619790379545,-0.13120458055600645,0.0,0.864445751183965,3.9283735636760556e-05,0.08713513295294864
428.0,0.9773821437626614,-2.0322191039714802e-05,-0.32987064118974113,-0.13506073785980843,0.0,0.8645618005887538,3.815614900056709e-05,0.08713671187936013
432.0,0.9773820564980851,-2.0695820134754364e-05,-0.332775537524768,-0.13899065404868297,0.0,0.8646778468862538,3.701888264537182e-05,0.0871383041996755
436.0,0.9773819667194136,-2.1072706482889067e-05,-0.33567667769274245,-0.1429949790181517,0.0,0.8647938900748511,3.5871962976795285e-05,0.08713990987475806
440.0,0.977381874379523,-2.1452845876318924e-05,-0.33857407216394947,-0.14707436083266925,0.0,0.8649099301528835,3.4715416657825e-05,0.08714152886515347
444.0,0.9773817794308833,-2.1836234119857702e-05,-0.34146773222768356,-0.15122944570894656,0.0,0.8650259671186392,3.3549270608322765e-05,0.08714316113109091
448.0,0.9773816818255605,-2.222286703184963e-05,-0.34435766999065115,-0.15546087799933356,0.0,0.8651420009703558,3.2373552004535536e-05,0.08714480663248397
452.0,0.9773815815152167,-2.2612740445084267e-05,-0.34724389837533454,-0.15976930017523278,0.0,0.8652580317062193,3.1188288278576676e-05,0.08714646532893199
456.0,0.977381478451112,-2.3005850207709486e-05,-0.3501264311183304,-0.16415535281057386,0.0,0.8653740593243633,2.999350711792639e-05,0.087148137179721
460.0,0.9773813725841055,-2.3402192184142573e-05,-0.35300528276865467,-0.1686196745653264,0.0,0.8654900838228673,2.8789236464887044e-05,0.08714982214382493
464.0,0.9773812638646566,-2.3801762255979336e-05,-0.3558804686860094,-0.17316290216906385,0.0,0.8656061051997557,2.7575504516086924e-05,0.08715152017990657
468.0,0.9773811522428262,-2.4204556322901274e-05,-0.3587520050390314,-0.17778567040457322,0.0,0.8657221234529968,2.63523397219114e-05,0.087153231246319
472.0,0.9773810376682777,-2.4610570303580704e-05,-0.3616199088034945,-0.18248861209151704,0.0,0.8658381385805022,2.5119770785980643e-05,0.08715495530110638
476.0,0.9773809200902785,-2.5019800136583836e-05,-0.3644841977604888,-0.18727235807014017,0.0,0.8659541505801254,2.387782666460846e-05,0.08715669230200537
480.0,0.9773807994577014,-2.5432241781271765e-05,-0.36734489049456626,-0.19213753718502868,0.0,0.8660701594496591,2.2626536566215944e-05,0.08715844220644609
484.0,0.9773806757190253,-2.584789121869933e-05,-0.37020200639185324,-0.19708477626891782,0.0,0.8661861651868377,2.1365929950807566e-05,0.08716020497155334
488.0,0.9773805488223372,-2.6266744452511818e-05,-0.3730555656381355,-0.20211470012654914,0.0,0.8663021677893323,2.0096036529370998e-05,0.08716198055414791
492.0,0.9773804187153325,-2.6688797509839478e-05,-0.37590558921690514,-0.2072279315185786,0.0,0.8664181672547532,1.8816886263321945e-05,0.0871637689107475
496.0,0.9773802853453177,-2.711404644218979e-05,-0.37875209890738426,-0.212425091145539,0.0,0.866534163580645,1.752850936391959e-05,0.08716556999756805
500.0,0.9773801486592103,-2.754248732633748e-05,-0.38159511728251366,-0.21770679763184728,0.0,0.8666501567644892,1.623093629167156e-05,0.08716738377052492
504.0,0.9773800086035409,-2.7974116265212227e-05,-0.38443466770690726,-0.2230736675098684,0.0,0.8667661468037007,1.4924197755733712e-05,0.08716921018523406
508.0,0.9773798651244543,-2.8408929388784045e-05,-0.3872707743347795,-0.22852631520403127,0.0,0.8668821336956273,1.3608324713311665e-05,0.08717104919701318
512.0,0.977379718167711,-2.8846922854946278e-05,-0.3901034621078446,-0.2340653530149974,0.0,0.8669981174375504,1.2283348369060576e-05,0.08717290076088306
516.0,0.9773795676786882,-2.928809285039621e-05,-0.3929327567531748,-0.23969139110387602,0.0,0.8671140980266797,1.0949300174474503e-05,0.0871747648315686
520.0,0.9773794136023815,-2.9732435591513217e-05,-0.3957586847810397,-0.24540503747650688,0.0,0.8672300754601576,9.60621182722898e-06,0.08717664136350027
524.0,0.9773792558834061,-3.017994732523446e-05,-0.39858127348270805,-0.25120689796778056,0.0,0.8673460497350536,8.254115270599822e-06,0.08717853031081506
528.0,0.9773790944659984,-3.063062432992806e-05,-0.4014005509282198,-0.25709757622602686,0.0,0.8674620208483658,6.893042692784914e-06,0.08718043162735797
532.0,0.9773789292940167,-3.1084462916263735e-05,-0.4042165459641281,-0.26307767369744806,0.0,0.8675779887970188,5.5230265263004944e-06,0.08718234526668317
536.0,0.9773787603109436,-3.154145942808087e-05,-0.40702928821121115,-0.2691477896106139,0.0,0.8676939535778626,4.144099447287254e-06,0.08718427118205509
540.0,0.9773785874598867,-3.2001610243253926e-05,-0.40983880806215534,-0.2753085209610043,0.0,0.8678099151876727,2.7562943749136147e-06,0.08718620932644994
544.0,0.97737841068358,-3.246491177455529e-05,-0.4126451366792027,-0.28156046249562106,0.0,0.8679258736231477,1.3596444706436578e-06,0.0871881596525568
548.0,0.9773782299243857,-3.2931360470515376e-05,-0.4154483059917769,-0.2879042066976406,0.0,0.8680418288809084,-4.5816862363085214e-08,0.08719012211277893
552.0,0.9773780451242955,-3.340095281628004e-05,-0.41824834869407007,-0.2943403437711352,0.0,0.868157780957498,-1.4600559799663385e-06,0.08719209665923508
556.0,0.9773778562249318,-3.3873685334465236e-05,-0.4210452982426064,-0.3008694616258451,0.0,0.86827372984938,-2.8830389977250967e-06,0.08719408324376071
560.0,0.9773776631675494,-3.4349554586008924e-05,-0.4238391888537704,-0.3074921458620109,0.0,0.8683896755529368,-4.314731791570698e-06,0.08719608181790936
564.0,0.9773774658930369,-3.4828557171020116e-05,-0.42663005550131367,-0.31420897975525747,0.0,0.8685056180644699,-5.755099998511123e-06,0.08719809233295386
568.0,0.9773772643419182,-3.5310689729625125e-05,-0.429417933913822,-0.32102054424154947,0.0,0.8686215573801984,-7.204109017349171e-06,0.08720011473988774
572.0,0.977377058454354,-3.57959489428109e-05,-0.43220286057215884,-0.32792741790219176,0.0,0.868737493496257,-8.66172400932778e-06,0.08720214898942637
576.0,0.977376848170143,-3.628433153326545e-05,-0.43498487270687874,-0.3349301769488995,0.0,0.8688534264086969,-1.012790989892452e-05,0.08720419503200849
580.0,0.9773766334287239,-3.677583426621534e-05,-0.4377640082956103,-0.3420293952089155,0.0,0.8689693561134824,-1.1602631374524689e-05,0.08720625281779738
584.0,0.9773764141691765,-3.7270453950260215e-05,-0.440540306060412,-0.3492256441102029,0.0,0.8690852826064929,-1.3085852889153341e-05,0.08720832229668225
588.0,0.9773761903302234,-3.776818743820426e-05,-0.4433138054650947,-0.3565194926666832,0.0,0.869201205883519,-1.4577538661217774e-05,0.08721040341827949
592.0,0.9773759618502312,-3.826903162788469e-05,-0.4460845467125204,-0.3639115074635466,0.0,0.8693171259402624,-1.6077652675239564e-05,0.08721249613193427
596.0,0.9773757286672128,-3.877298346299709e-05,-0.4488525707418667,-0.3714022526426149,0.0,0.8694330427723367,-1.7586158682621307e-05,0.08721460038672142
600.0,0.977375490718828,-3.92800399339177e-05,-0.4516179192258663,-0.3789922898877698,0.0,0.8695489563752634,-1.9103020202364836e-05,0.08721671613144731
604.0,0.9773752479423857,-3.979019807852254e-05,-0.4543806345680159,-0.386682178410444,0.0,0.8696648667444735,-2.0628200521855264e-05,0.08721884331465085
608.0,0.9773750002748454,-4.030345498300336e-05,-0.4571407598997597,-0.3944724749351722,0.0,0.8697807738753052,-2.216166269761043e-05,0.087220981884605
612.0,0.9773747476528183,-4.081980778268035e-05,-0.4598983390776387,-0.4023637336852041,0.0,0.8698966777630025,-2.3703369556075354e-05,0.08722313178931815
616.0,0.9773744900125694,-4.1339253662811694e-05,-0.46265341668041754,-0.41035650636818216,0.0,0.8700125784027156,-2.5253283694375192e-05,0.08722529297653536
620.0,0.977374227290019,-4.186178985939978e-05,-0.46540603800617575,-0.41845134216188157,0.0,0.8701284757894996,-2.681136748111658e-05,0.08722746539374
624.0,0.977373959420744,-4.238741365999413e-05,-0.46815624906938164,-0.42664878770001335,0.0,0.8702443699183121,-2.8377583057175253e-05,0.08722964898815487
628.0,0.9773736863399799,-4.291612240449102e-05,-0.4709040965979278,-0.4349493870580926,0.0,0.870360260784014,-2.9951892336469708e-05,0.08723184370674379
632.0,0.9773734079826221,-4.344791348592968e-05,-0.4736496280301429,-0.44335368173937184,0.0,0.8704761483813677,-3.1534257006814715e-05,0.08723404949621291
636.0,0.9773731242832275,-4.3982784351285175e-05,-0.47639289151177433,-0.45186221066083637,0.0,0.8705920327050363,-3.3124638530677677e-05,0.08723626630301216
640.0,0.9773728351760167,-4.452073250225779e-05,-0.47913393589295084,-0.46047551013926713,0.0,0.8707079137495831,-3.472299814602508e-05,0.0872384940733366
644.0,0.9773725405948748,-4.5061755496059e-05,-0.4818728107251024,-0.46919411387736343,0.0,0.8708237915094692,-3.632929686713446e-05,0.08724073275312796
648.0,0.9773722404733536,-4.560585094619391e-05,-0.48460956625786555,-0.4780185529499459,0.0,0.8709396659790539,-3.7943495485426986e-05,0.08724298228807593
652.0,0.9773719347446731,-4.615301652324022e-05,-0.48734425343595783,-0.48694935579020643,0.0,0.8710555371525943,-3.956555457030017e-05,0.08724524262361974
656.0,0.9773716233417233,-4.670324995562362e-05,-0.49007692389602314,-0.49598704817603834,0.0,0.8711714050242425,-4.119543446996399e-05,0.08724751370494947
660.0,0.9773713061970658,-4.725654903038958e-05,-0.49280762996344873,-0.5051321532164278,0.0,0.8712872695880459,-4.2833095312287435e-05,0.08724979547700756
664.0,0.9773709832429354,-4.7812911593971576e-05,-0.49553642464916187,-0.5143851913379156,0.0,0.8714031308379463,-4.4478497005645085e-05,0.08725208788449022
668.0,0.9773706544112416,-4.8372335552955624e-05,-0.4982633616463924,-0.5237466802711223,0.0,0.8715189887677783,-4.613159923981216e-05,0.08725439087184898
672.0,0.9773703196335709,-4.893481887484118e-05,-0.5009884953274112,-0.5332171350373448,0.0,0.8716348433712694,-4.779236148677991e-05,0.087256704383292
676.0,0.9773699788411879,-4.950035958879832e-05,-0.5037118807402431,-0.5427970679352202,0.0,0.8717506946420378,-4.94607430016541e-05,0.08725902836278562
680.0,0.9773696319650376,-5.0068955786421175e-05,-0.506433573605354,-0.5524869885274561,0.0,0.8718665425735925,-5.113670282352602e-05,0.08726136275405595
684.0,0.9773692789357463,-5.064060562247764e-05,-0.5091536303123065,-0.5622874036276356,0.0,0.8719823871593324,-5.2820199776353486e-05,0.08726370750059008
688.0,0.9773689196836244,-5.121530731565526e-05,-0.5118721079163967,-0.5721988172870853,0.0,0.8720982283925446,-5.451119246985621e-05,0.08726606254563783
692.0,0.9773685541386671,-5.1793059149303304e-05,-0.5145890641352576,-0.5822217307818162,0.0,0.8722140662664037,-5.6209639300410716e-05,0.08726842783221309
696.0,0.9773681822305569,-5.2373859472170986e-05,-0.5173045573454419,-0.5923566425995341,0.0,0.8723299007739724,-5.7915498451921276e-05,0.08727080330309528
700.0,0.977367803888665,-5.295770669914182e-05,-0.5200186465789779,-0.6026040484267193,0.0,0.8724457319081983,-5.962872789679135e-05,0.08727318890083102
704.0,0.977367419042053,-5.354459931196404e-05,-0.5227313915198972,-0.6129644411357796,0.0,0.8725615596619146,-6.134928539676655e-05,0.08727558456773546
708.0,0.9773670276194752,-5.4134535859977126e-05,-0.5254428525007377,-0.6234383107722716,0.0,0.8726773840278388,-6.30771285038959e-05,0.08727799024589393
712.0,0.9773666295493798,-5.4727514960834296e-05,-0.528153090499022,-0.6340261445421927,0.0,0.8727932049985719,-6.481221456144756e-05,0.08728040587716332
716.0,0.9773662247599108,-5.532353530122107e-05,-0.5308621671337118,-0.6447284267993485,0.0,0.8729090225665973,-6.655450070483175e-05,0.08728283140317375
720.0,0.9773658131789099,-5.592259563756979e-05,-0.5335701446616359,-0.6555456390327897,0.0,0.8730248367242797,-6.83039438625306e-05,0.0872852667653299
724.0,0.9773653947339186,-5.652469479677004e-05,-0.5362770859738895,-0.6664782598543214,0.0,0.8731406474638653,-7.006050075708005e-05,0.08728771190481274
728.0,0.9773649693521794,-5.7129831676875075e-05,-0.538983054592216,-0.6775267649860856,0.0,0.8732564547774799,-7.182412790596483e-05,0.08729016676258101
732.0,0.9773645369606382,-5.773800524780407e-05,-0.5416881146653577,-0.6886916272482152,0.0,0.8733722586571283,-7.359478162260393e-05,0.08729263127937267
736.0,0.9773640974859457,-5.834921455204026e-05,-0.5443923309653835,-0.6999733165465645,0.0,0.8734880590946941,-7.537241801731846e-05,0.08729510539570655
740.0,0.9773636508544593,-5.89634587053249e-05,-0.5470957688839926,-0.7113722998605102,0.0,0.8736038560819381,-7.715699299825452e-05,0.08729758905188387
744.0,0.9773631969922454,-5.958073689734709e-05,-0.5497984944287965,-0.7228890412308253,0.0,0.8737196496104975,-7.894846227239647e-05,0.08730008218798972
748.0,0.9773627358250806,-6.0201048392429294e-05,-0.5525005742195713,-0.7345240017476343,0.0,0.8738354396718857,-8.074678134651726e-05,0.08730258474389474
752.0,0.977362267278454,-6.082439253020866e-05,-0.5552020754844904,-0.746277639538432,0.0,0.8739512262574909,-8.255190552819517e-05,0.08730509665925662
756.0,0.9773617912775688,-6.14507687263141e-05,-0.5579030660563296,-0.7581504097561881,0.0,0.8740670093585752,-8.436378992675756e-05,0.08730761787352176
760.0,0.9773613077473446,-6.208017647303902e-05,-0.5606036143686516,-0.7701427645675224,0.0,0.8741827889662745,-8.618238945430412e-05,0.08731014832592665
764.0,0.9773608166124188,-6.271261534000972e-05,-0.5633037894519678,-0.7822551531409498,0.0,0.8742985650715978,-8.800765882669586e-05,0.08731268795549965
768.0,0.9773603177971486,-6.334808497484948e-05,-0.5660036609298719,-0.7944880216352108,0.0,0.8744143376654242,-8.98395525645681e-05,0.08731523670106242
772.0,0.9773598112256131,-6.398658510383824e-05,-0.5687032990151508,-0.8068418131876733,0.0,0.8745301067385055,-9.167802499431587e-05,0.0873177945012317
776.0,0.977359296821615,-6.462811553256789e-05,-0.5714027745058783,-0.8193169679028096,0.0,0.8746458722814625,-9.352303024915896e-05,0.08732036129442071
780.0,0.9773587745086828,-6.527267614659311e-05,-0.5741021587814781,-0.8319139228407544,0.0,0.8747616342847863,-9.53745222701168e-05,0.08732293701884082
784.0,0.9773582442100722,-6.592026691207773e-05,-0.5768015237987714,-0.8446331120059344,0.0,0.8748773927388359,-9.723245480704591e-05,0.08732552161250322
788.0,0.9773577058487686,-6.657088787643671e-05,-0.579500942087993,-0.8574749663357784,0.0,0.8749931476338388,-9.909678141970158e-05,0.08732811501322035
792.0,0.9773571593474886,-6.722453916897348e-05,-0.58220048674879,-0.8704399136895058,0.0,0.8751088989598887,-0.00010096745547872642,0.08733071715860774
796.0,0.9773566046286822,-6.788122100151281e-05,-0.5849002314462025,-0.8835283788369918,0.0,0.8752246467069472,-0.0001028444301667505,0.08733332798608551
800.0,0.9773560416145347,-6.854093366902911e-05,-0.587600250406608,-0.8967407834477098,0.0,0.8753403908648397,-0.00010472765847937998,0.08733594743287992
804.0,0.9773554702269684,-6.920367755027018e-05,-0.5903006184136621,-0.9100775460797524,0.0,0.8754561314232577,-0.00010661709322631423,0.0873385754360251
808.0,0.9773548903876451,-6.986945310837629e-05,-0.5930014108042005,-0.9235390821689351,0.0,0.875571868371756,-0.00010851268703235548,0.08734121193236473
812.0,0.9773543020179675,-7.053826089149465e-05,-0.5957027034641299,-0.9371258040179716,0.0,0.8756876016997533,-0.00011041439233849136,0.0873438568585534
816.0,0.9773537050390814,-7.121010153338923e-05,-0.5984045728242914,-0.9508381207857355,0.0,0.8758033313965308,-0.00011232216140297383,0.08734651015105868
820.0,0.9773530993718778,-7.188497575404587e-05,-0.6011070958563048,-0.9646764384765965,0.0,0.8759190574512311,-0.00011423594630238425,0.08734917174616236
824.0,0.9773524849369948,-7.256288436027274e-05,-0.603810350068392,-0.9786411599298412,0.0,0.8760347798528585,-0.00011615569893272282,0.08735184157996227
828.0,0.9773518616548195,-7.3243828246296e-05,-0.606514413501177,-0.9927326848091711,0.0,0.8761504985902775,-0.00011808137101048424,0.08735451958837394
832.0,0.9773512294454899,-7.392780839435071e-05,-0.6092193647234665,-1.0069514095922794,0.0,0.8762662136522128,-0.0001200129140737538,0.08735720570713225
836.0,0.9773505882288975,-7.461482587526703e-05,-0.6119252828280104,-1.021297727560515,0.0,0.8763819250272479,-0.00012195027948330043,0.08735989987179305
840.0,0.9773499379246886,-7.530488184905154e-05,-0.6146322474272364,-1.0357720287886156,0.0,0.8764976327038237,-0.00012389341842370777,0.08736260201773477
844.0,0.9773492784522666,-7.599797756546374e-05,-0.6173403386489738,-1.0503747001345385,0.0,0.8766133366702401,-0.0001258422819044288,0.08736531208016027
848.0,0.9773486097307942,-7.669411436458777e-05,-0.6200496371321434,-1.0651061252293557,0.0,0.8767290369146535,-0.00012779682076092714,0.08736802999409828
852.0,0.9773479316791951,-7.739329367739917e-05,-0.6227602240224414,-1.079966684467244,0.0,0.8768447334250765,-0.00012975698565582236,0.08737075569440528
856.0,0.9773472442161564,-7.809551702632677e-05,-0.6254721809679928,-1.0949567549955532,0.0,0.8769604261893772,-0.00013172272707994432,0.08737348911576699
860.0,0.9773465472601301,-7.880078602580971e-05,-0.6281855901149876,-1.1100767107049483,0.0,0.8770761151952787,-0.00013369399535352342,0.08737623019270022
864.0,0.9773458407293361,-7.950910238284946e-05,-0.6309005341032995,-1.1253269222196496,0.0,0.8771918004303585,-0.00013567074062730052,0.08737897885955442
868.0,0.977345124541763,-8.022046789755687e-05,-0.6336170960620816,-1.1407077568877413,0.0,0.8773074818820475,-0.00013765291288363768,0.08738173505051344
872.0,0.9773443986151714,-8.093488446369431e-05,-0.636335359605346,-1.1562195787715726,0.0,0.87742315953763,-0.00013964046193771438,0.08738449869959719
876.0,0.9773436628670951,-8.165235406921272e-05,-0.6390554088275242,-1.1718627486382391,0.0,0.877538833384242,-0.0001416333374386421,0.08738726974066338
880.0,0.9773429172148433,-8.237287879678366e-05,-0.6417773282989999,-1.1876376239501443,0.0,0.8776545034088712,-0.00014363148887060846,0.08739004810740914
884.0,0.9773421615755032,-8.309646082432635e-05,-0.6445012030616375,-1.203544558855651,0.0,0.8777701695983572,-0.00014563486555403983,0.08739283373337275
888.0,0.9773413958659417,-8.382310242552954e-05,-0.6472271186242788,-1.219583904179813,0.0,0.8778858319393892,-0.00014764341664679493,0.08739562655193546
892.0,0.9773406200028072,-8.455280597036838e-05,-0.6499551609582263,-1.2357560074151897,0.0,0.8780014904185061,-0.00014965709114528515,0.08739842649632303
896.0,0.9773398339025324,-8.528557392561615e-05,-0.652685416492709,-1.2520612127127522,0.0,0.8781171450220967,-0.00015167583788568563,0.08740123349960745
900.0,0.9773390374813359,-8.602140885535083e-05,-0.6554179721103286,-1.2684998608728604,0.0,0.8782327957363979,-0.00015369960554506627,0.08740404749470887
904.0,0.9773382306552242,-8.676031342145652e-05,-0.6581529151424849,-1.2850722893363455,0.0,0.8783484425474941,-0.00015572834264263014,0.08740686841439699
908.0,0.9773374133399945,-8.75022903841197e-05,-0.6608903333647911,-1.3017788321756578,0.0,0.8784640854413183,-0.00015776199754085853,0.08740969619129306
912.0,0.977336585451236,-8.824734260232028e-05,-0.6636303149924612,-1.3186198200861106,0.0,0.8785797244036492,-0.00015980051844671834,0.08741253075787145
916.0,0.9773357469043327,-8.899547303431747e-05,-0.6663729486756863,-1.3355955803772086,0.0,0.8786953594201116,-0.0001618438534128313,0.08741537204646146
920.0,0.9773348976144649,-8.974668473813035e-05,-0.6691183234949919,-1.352706436964061,0.0,0.8788109904761772,-0.00016389195033872627,0.08741821998924895
924.0,0.977334037496612,-9.05009808720132e-05,-0.6718665289565765,-1.3699527103588798,0.0,0.8789266175571613,-0.0001659447569719948,0.08742107451827827
928.0,0.9773331664655539,-9.12583646949256e-05,-0.6746176549876365,-1.387334717662567,0.0,0.8790422406482243,-0.00016800222090950873,0.08742393556545368
932.0,0.977332284435874,-9.201883956699718e-05,-0.6773717919316706,-1.4048527725563869,0.0,0.8791578597343706,-0.00017006428959867622,0.0874268030625414
936.0,0.9773313913219608,-9.27824089499871e-05,-0.6801290305437685,-1.4225071852937217,0.0,0.8792734748004475,-0.000172130910338597,0.08742967694117115
940.0,0.97733048703801,-9.354907640773815e-05,-0.6828894619858848,-1.4402982626919232,0.0,0.8793890858311454,-0.00017420203028132523,0.08743255713283805
944.0,0.9773295714980268,-9.431884560662555e-05,-0.6856531778220941,-1.4582263081242424,0.0,0.8795046928109974,-0.00017627759643308385,0.08743544356890423
948.0,0.9773286446158284,-9.509172031600034e-05,-0.6884202700138314,-1.4762916215118522,0.0,0.8796202957243775,-0.00017835755565551016,0.08743833618060062
952.0,0.9773277063050455,-9.586770440862738e-05,-0.6911908309151139,-1.4944944993159577,0.0,0.8797358945555016,-0.00018044185466686673,0.08744123489902877
956.0,0.9773267564791253,-9.664680186111799e-05,-0.6939649532677499,-1.5128352345299874,0.0,0.8798514892884258,-0.00018253044004331085,0.08744413965516247
960.0,0.9773257950513327,-9.742901675435706e-05,-0.6967427301965323,-1.5313141166718802,0.0,0.8799670799070467,-0.0001846232582201266,0.08744705037984968
964.0,0.9773248219347533,-9.82143532739249e-05,-0.6995242552044143,-1.5499314317764623,0.0,0.8800826663951001,-0.00018672025549297015,0.08744996700381413
968.0,0.9773238370422954,-9.900281571051342e-05,-0.7023096221676701,-1.5686874623879012,0.0,0.8801982487361617,-0.00018882137801912242,0.08745288945765722
972.0,0.9773228402866919,-9.979440846033697e-05,-0.7050989253310416,-1.5875824875522608,0.0,0.880313826913645,-0.00019092657181873769,0.08745581767185964
976.0,0.9773218315805028,-0.00010058913602553766,-0.7078922593028699,-1.6066167828101383,0.0,0.8804294009108026,-0.00019303578277615201,0.08745875157678328
980.0,0.9773208108361172,-0.00010138700301458512,-0.7106897190502106,-1.6257906201893895,0.0,0.8805449707107238,-0.0001951489566410831,0.08746169110267292
984.0,0.9773197779657558,-0.00010218801414267082,-0.7134913998939361,-1.6451042681979515,0.0,0.8806605362963357,-0.00019726603902996706,0.08746463617965797
988.0,0.9773187328814728,-0.00010299217423209672,-0.7162973975038226,-1.6645579918167475,0.0,0.8807760976504019,-0.00019938697542717845,0.08746758673775434
992.0,0.9773176754951582,-0.0001037994882126585,-0.7191078078936253,-1.684152052492676,0.0,0.8808916547555224,-0.000201511711186346,0.08747054270686619
996.0,0.9773166057185404,-0.00010460996112202312,-0.7219227274161311,-1.7038867081317075,0.0,0.8810072075941336,-0.00020364019153159781,0.08747350401678766
1000.0,0.9773155234631876,-0.00010542359810610076,-0.7247422527582107,-1.723762213092052,0.0,0.8811227561485062,-0.00020577236155890397,0.08747647059720463
1004.0,0.977314428640511,-0.0001062404044194113,-0.7275664809358492,-1.7437788181774296,0.0,0.8812383004007464,-0.0002079081662373225,0.08747944237769664
1008.0,0.9773133211617663,-0.00010706038542544503,-0.7303955092891586,-1.763936770630425,0.0,0.8813538403327947,-0.00021004755041029987,0.08748241928773853
1012.0,0.9773122009380563,-0.00010788354659701773,-0.7332294354773878,-1.7842363141259343,0.0,0.881469375926426,-0.00021219045879697915,0.0874854012567023
1016.0,0.977311067880333,-0.00010870989351662021,-0.7360683574739108,-1.8046776887647045,0.0,0.8815849071632483,-0.00021433683599351186,0.08748838821385888
1020.0,0.9773099218993999,-0.00010953943187676206,-0.7389123735612068,-1.8252611310669598,0.0,0.8817004340247032,-0.00021648662647434782,0.08749138008837994
1024.0,0.9773087629059145,-0.00011037216748030979,-0.7417615823258258,-1.8459868739661223,0.0,0.8818159564920651,-0.00021863977459356135,0.08749437680933964
1028.0,0.9773075908103899,-0.00011120810624081921,-0.7446160826533406,-1.8668551468026213,0.0,0.881931474546441,-0.00022079622458613408,0.08749737830571644
1032.0,0.9773064055231977,-0.00011204725418286217,-0.7474759737232866,-1.887866175317797,0.0,0.8820469881687688,-0.00022295592056934,0.08750038450639497
1036.0,0.9773052069545701,-0.0001128896174423475,-0.7503413550040957,-1.9090201816478936,0.0,0.8821624973398196,-0.00022511880654398046,0.08750339534016773
1040.0,0.977303995014602,-0.00011373520226683629,-0.7532123262480065,-1.9303173843181436,0.0,0.8822780020401949,-0.0002272848263957886,0.08750641073573687
1044.0,0.9773027696132532,-0.00011458401501585134,-0.7560889874859699,-1.9517579982369455,0.0,0.882393502250327,-0.00022945392389669994,0.08750943062171612
1048.0,0.9773015306603512,-0.00011543606216118088,-0.758971439022546,-1.9733422346901333,0.0,0.8825089979504784,-0.00023162604270623316,0.08751245492663252
1052.0,0.9773002780655928,-0.0001162913502871765,-0.7618597814307816,-1.9950703013353384,0.0,0.8826244891207429,-0.00023380112637278356,0.08751548357892815
1056.0,0.977299011738547,-0.00011714988609104533,-0.7647541155470843,-2.01694240219644,0.0,0.8827399757410427,-0.00023597911833499093,0.08751851650696207
1060.0,0.9772977315886568,-0.00011801167638313634,-0.7676545424660773,-2.0389587376581155,0.0,0.8828554577911304,-0.00023815996192311283,0.08752155363901208
1064.0,0.9772964375252418,-0.00011887672808722086,-0.7705611635354511,-2.0611195044604735,0.0,0.8829709352505873,-0.0002403436003603013,0.08752459490327648
1068.0,0.9772951294575,-0.0001197450482407673,-0.7734740803508011,-2.0834248956937893,0.0,0.8830864080988234,-0.00024252997676400131,0.08752764022787589
1072.0,0.9772938072945109,-0.00012061664399520995,-0.7763933947504527,-2.1058751007933276,0.0,0.8832018763150772,-0.00024471903414730387,0.08753068954085513
1076.0,0.9772924709452373,-0.00012149152261621202,-0.7793192088102797,-2.128470305534258,0.0,0.8833173398784153,-0.00024691071542030604,0.08753374277018501
1080.0,0.9772911203185275,-0.00012236969148392274,-0.782251624838512,-2.151210692026668,0.0,0.8834327987677322,-0.0002491049633914219,0.08753679984376406
1084.0,0.9772897553231179,-0.0001232511580932286,-0.7851907453705306,-2.174096438710664,0.0,0.8835482529617497,-0.0002513017207688474,0.0875398606894204
1088.0,0.9772883758676351,-0.00012413593005399873,-0.7881366731636569,-2.1971277203515704,0.0,0.8836637024390163,-0.0002535009301618366,0.08754292523491365
1092.0,0.9772869818605981,-0.00012502401509132438,-0.7910895111919292,-2.220304708035217,0.0,0.8837791471779084,-0.00025570253408211047,0.08754599340793652
1096.0,0.9772855732104213,-0.0001259154210457524,-0.7940493626408707,-2.243627569163326,0.0,0.8838945871566285,-0.0002579064749452444,0.08754906513611697
1100.0,0.9772841498254159,-0.00012681015587351295,-0.79701633090225,-2.2670964674489853,0.0,0.8840100223532049,-0.0002601126950720357,0.0875521403470196
1104.0,0.9772827116137927,-0.0001277082276467412,-0.7999905195688318,-2.2907115629122274,0.0,0.8841254527454928,-0.0002623211366898563,0.08755521896814789
1108.0,0.9772812584836643,-0.00012860964455369299,-0.8029720324291157,-2.314473011875688,0.0,0.8842408783111729,-0.0002645317419341027,0.08755830092694568
1112.0,0.9772797903430478,-0.00012951441489895475,-0.8059609734620728,-2.338380966960367,0.0,0.8843562990277511,-0.0002667444528495081,0.08756138615079925
1116.0,0.9772783070998664,-0.0001304225471036473,-0.8089574468318697,-2.362435577081484,0.0,0.8844717148725588,-0.00026895921139162657,0.08756447456703893
1120.0,0.9772768086619524,-0.00013133404970562374,-0.8119615568825849,-2.386636987444428,0.0,0.8845871258227527,-0.00027117595942812464,0.08756756610294114
1124.0,0.9772752949370492,-0.00013224893135966133,-0.8149734081329145,-2.4109853395407965,0.0,0.8847025318553136,-0.00027339463874025133,0.08757066068572997
1128.0,0.9772737658328137,-0.00013316720083764744,-0.8179931052708791,-2.435480771144536,0.0,0.8848179329470471,-0.00027561519102418475,0.08757375824257921
1132.0,0.9772722212568185,-0.0001340888670287594,-0.8210207531485108,-2.460123416308171,0.0,0.8849333290745837,-0.00027783755789253123,0.08757685870061409
1136.0,0.9772706611165546,-0.00013501393893963849,-0.8240564567765465,-2.484913405359133,0.0,0.8850487202143773,-0.0002800616808756013,0.08757996198691308
1140.0,0.9772690853194334,-0.0001359424256945578,-0.8271003213191002,-2.5098508648961815,0.0,0.885164106342706,-0.0002822875014229232,0.08758306802850982
1144.0,0.977267493772789,-0.00013687433653558409,-0.8301524520883387,-2.5349359177859165,0.0,0.8852794874356716,-0.00028451496090460196,0.0875861767523948
1148.0,0.977265886383881,-0.0001378096808227337,-0.8332129545391448,-2.560168683159398,0.0,0.8853948634691994,-0.0002867440006127639,0.08758928808551732
1152.0,0.9772642630598964,-0.0001387484680341222,-0.8362819342637797,-2.585549276408844,0.0,0.8855102344190381,-0.000288974561762957,0.0875924019547872
1156.0,0.9772626237079522,-0.00013969070776610843,-0.8393594969865308,-2.6110778091844398,0.0,0.8856256002607591,-0.0002912065854955604,0.08759551828707669
1160.0,0.9772609682350976,-0.00014063640973343194,-0.8424457485583617,-2.6367543893912284,0.0,0.8857409609697576,-0.0002934400128772622,0.08759863700922232
1164.0,0.9772592965483161,-0.00014158558376934483,-0.845540794951551,-2.662579121186107,0.0,0.8858563165212505,-0.00029567478490242593,0.08760175804802661
1168.0,0.9772576085545287,-0.00014253823982573723,-0.848644742254326,-2.688552104974915,0.0,0.8859716668902784,-0.0002979108424945413,0.08760488133026001
1172.0,0.9772559041605953,-0.0001434943879732569,-0.8517576966654936,-2.714673437409615,0.0,0.8860870120517039,-0.0003001481265076466,0.08760800678266276
1176.0,0.9772541832733177,-0.00014445403840142264,-0.8548797644890611,-2.7409432113855763,0.0,0.8862023519802116,-0.00030238657772779277,0.08761113433194646
1180.0,0.9772524457994417,-0.00014541720141873164,-0.8580110521288593,-2.767361516038943,0.0,0.8863176866503091,-0.00030462613687447254,0.08761426390479632
1184.0,0.9772506916456594,-0.00014638388745276078,-0.8611516660831514,-2.7939284367441104,0.0,0.8864330160363253,-0.00030686674460201556,0.08761739542787254
1188.0,0.9772489207186117,-0.00014735410705026182,-0.8643017129392483,-2.8206440551112895,0.0,0.8865483401124115,-0.0003091083415010937,0.08762052882781253
1192.0,0.9772471329248907,-0.0001483278708772504,-0.867461299368106,-2.8475084489841676,0.0,0.8866636588525404,-0.0003113508681001302,0.08762366403123245
1196.0,0.977245328171042,-0.00014930518971908915,-0.8706305321189288,-2.8745216924376704,0.0,0.8867789722305074,-0.0003135942648667489,0.08762680096472918
1200.0,0.977243506363567,-0.00015028607448056437,-0.8738095180137656,-2.901683855775813,0.0,0.8868942802199284,-0.00031583847220924705,0.08762993955488216
1204.0,0.9772416674089254,-0.00015127053618595694,-0.8769983639421032,-2.9289950055296496,0.0,0.8870095827942412,-0.00031808343047798104,0.0876330797282551
1208.0,0.9772398112135372,-0.00015225858597910688,-0.8801971768554516,-2.956455204455322,0.0,0.887124879926706,-0.00032032907996693585,0.08763622141139794
1212.0,0.9772379376837859,-0.00015325023512347186,-0.8834060637619301,-2.9840645115322024,0.0,0.8872401715904024,-0.00032257536091505746,0.08763936453084865
1216.0,0.9772360467260197,-0.00015424549500217964,-0.8866251317208518,-3.0118229819611315,0.0,0.8873554577582324,-0.0003248222135078057,0.08764250901313493
1220.0,0.9772341382465551,-0.0001552443771180742,-0.889854487837295,-3.0397306671627535,0.0,0.8874707384029201,-0.00032706957787856464,0.08764565478477623
1224.0,0.9772322121516785,-0.00015624689309375595,-0.8930942392566873,-3.0677876147759475,0.0,0.8875860134970092,-0.00032931739411011973,0.08764880177228543
1228.0,0.9772302683476486,-0.0001572530546716157,-0.8963444931593718,-3.095993868656354,0.0,0.8877012830128654,-0.0003315656022361216,0.08765194990217075
1232.0,0.977228306740699,-0.0001582628737138625,-0.8996053567551834,-3.124349468875003,0.0,0.8878165469226752,-0.0003338141422425575,0.08765509910093752
1236.0,0.9772263272370407,-0.00015927636220254527,-0.9028769372780099,-3.1528544517170314,0.0,0.8879318051984462,-0.0003360629540692505,0.08765824929509003
1240.0,0.9772243297428642,-0.0001602935322395685,-0.9061593419803646,-3.1815088496805024,0.0,0.8880470578120065,-0.000338311977611246,0.08766140041113332
1244.0,0.9772223141643419,-0.00016131439604670148,-0.9094526781279467,-3.210312691475316,0.0,0.8881623047350067,-0.0003405611527203885,0.08766455237557505
1248.0,0.9772202804076305,-0.00016233896596558168,-0.9127570529942081,-3.2392660020222217,0.0,0.8882775459389164,-0.00034281041920671506,0.08766770511492737
1252.0,0.9772182283788737,-0.00016336725445771183,-0.9160725738549071,-3.268368802451926,0.0,0.8883927813950272,-0.00034505971683998233,0.08767085855570861
1256.0,0.977216157984204,-0.00016439927410445083,-0.9193993479826752,-3.297621110104293,0.0,0.8885080110744521,-0.00034730898535114427,0.08767401262444516
1260.0,0.9772140691297457,-0.0001654350376069986,-0.922737482641573,-3.327022938527648,0.0,0.8886232349481242,-0.0003495581644338032,0.08767716724767327
1264.0,0.9772119617216167,-0.00016647455778637466,-0.9260870850816494,-3.35657429747817,0.0,0.8887384529867975,-0.0003518071937456934,0.08768032235194105
1268.0,0.9772098356659313,-0.0001675178475833907,-0.9294482625334951,-3.3862751929193893,0.0,0.8888536651610479,-0.0003540560129102226,0.08768347786380992
1272.0,0.9772076908688024,-0.0001685649200586169,-0.9328211222028071,-3.4161256270217764,0.0,0.8889688714412716,-0.00035630456151791495,0.08768663370985681
1276.0,0.977205527236344,-0.000169615788392342,-0.9362057712649373,-3.4461255981624244,0.0,0.8890840717976861,-0.0003585527791278888,0.08768978981667573
1280.0,0.9772033446746734,-0.00017067046588452743,-0.9396023168594545,-3.47627510092484,0.0,0.8891992662003299,-0.0003608006052693767,0.08769294611087966
1284.0,0.9772011430899137,-0.00017172896595475513,-0.943010866084698,-3.5065741260988177,0.0,0.8893144546190628,-0.00036304797944320305,0.08769610251910236
1288.0,0.9771989223881961,-0.00017279130214216927,-0.9464315259923393,-3.537022660680416,0.0,0.8894296370235658,-0.000365294841123255,0.08769925896800024
1292.0,0.9771966824756625,-0.00017385748810541175,-0.949864403581935,-3.5676206878720387,0.0,0.8895448133833409,-0.0003675411297580234,0.08770241538425406
1296.0,0.9771944232584676,-0.00017492753762255163,-0.9533096057954872,-3.598368187082597,0.0,0.889659983667712,-0.00036978678477211517,0.08770557169457083
1300.0,0.9771921446427816,-0.00017600146459100842,-0.9567672395120059,-3.6292651339277806,0.0,0.8897751478458241,-0.00037203174556764814,0.08770872782568553
1304.0,0.9771898465347921,-0.00017707928302746905,-0.9602374115420681,-3.660311500230419,0.0,0.8898903058866433,-0.0003742759515258468,0.08771188370436309
1308.0,0.977187528840707,-0.00017816100706779888,-0.9637202286223778,-3.691507254020944,0.0,0.8900054577589585,-0.00037651934200853436,0.08771503925739998
1312.0,0.9771851914667566,-0.00017924665096694648,-0.9672157974103343,-3.722852359537947,0.0,0.890120603431379,-0.00037876185635958955,0.08771819441162614
1316.0,0.977182834319196,-0.0001803362290988423,-0.970724224478596,-3.75434677722883,0.0,0.8902357428723365,-0.00038100343390649443,0.08772134909390675
1320.0,0.9771804573043074,-0.00018142975595629104,-0.9742456163096475,-3.7859904637505597,0.0,0.8903508760500849,-0.0003832440139618124,0.08772450323114402
1324.0,0.9771780603284028,-0.00018252724615085814,-0.9777800792903728,-3.8177833719705117,0.0,0.8904660029326998,-0.0003854835358247075,0.08772765675027909
1328.0,0.9771756432978261,-0.0001836287144127499,-0.981327719706625,-3.849725450967417,0.0,0.8905811234880792,-0.0003877219387824502,0.08773080957829367
1332.0,0.9771732061189556,-0.00018473417559068762,-0.9848886437378033,-3.8818166460323975,0.0,0.890696237683943,-0.00038995916211192284,0.0877339616422119
1336.0,0.9771707486982062,-0.00018584364465177547,-0.9884629574514322,-3.9140568986701103,0.0,0.8908113454878341,-0.00039219514508114054,0.08773711286910219
1340.0,0.977168270942032,-0.00018695713668136237,-0.9920507667977395,-3.9464461465999756,0.0,0.8909264468671181,-0.00039442982695075507,0.08774026318607898
1344.0,0.9771657727569284,-0.0001880746668828976,-0.9956521776042452,-3.9789843237575058,0.0,0.8910415417889824,-0.0003966631469755621,0.08774341252030454
1348.0,0.9771632540494349,-0.0001891962505777804,-0.9992672955703481,-4.011671360295738,0.0,0.8911566302204389,-0.00039889504440601995,0.0877465607989907
1352.0,0.9771607147261371,-0.0001903219032052034,-1.0028962262619148,-4.044507182586751,0.0,0.8912717121283211,-0.00040112545848979025,0.08774970794940073
1356.0,0.9771581546936692,-0.00019145164032198994,-1.0065390751058787,-4.077491713223288,0.0,0.8913867874792868,-0.00040335432847317463,0.08775285389885104
1360.0,0.9771555738587164,-0.0001925854776024253,-1.0101959473848416,-4.110624871020471,0.0,0.8915018562398169,-0.0004055815936027591,0.08775599857471307
1364.0,0.9771529721280173,-0.00019372343083808185,-1.0138669482316751,-4.143906571017614,0.0,0.8916169183762166,-0.00040780719312678723,0.08775914190441496
1368.0,0.9771503494083661,-0.00019486551593763792,-1.0175521826241287,-4.177336724480131,0.0,0.8917319738546136,-0.00041003106629677785,0.08776228381544338
1372.0,0.9771477056066151,-0.0001960117489266909,-1.021251755379445,-4.21091523890154,0.0,0.8918470226409615,-0.0004122531523690303,0.08776542423534524
1376.0,0.9771450406296771,-0.00019716214594756395,-1.0249657711489781,-4.244642018005563,0.0,0.8919620647010369,-0.0004144733906060958,0.08776856309172967
1380.0,0.9771423543845277,-0.00019831672325910674,-1.0286943344128188,-4.278516961748325,0.0,0.8920771000004414,-0.0004166917202783379,0.08777170031226954
1384.0,0.9771396467782076,-0.0001994754972364902,-1.0324375494744216,-4.312539966320645,0.0,0.8921921285046011,-0.00041890808066549534,0.08777483582470332
1388.0,0.9771369177178252,-0.00020063848437099505,-1.036195520455239,-4.346710924150431,0.0,0.8923071501787676,-0.0004211224110580816,0.087777969556837
1392.0,0.9771341671105586,-0.00020180570126979435,-1.0399683512893654,-4.381029723905157,0.0,0.8924221649880176,-0.0004233346507590455,0.08778110143654551
1396.0,0.9771313948636582,-0.00020297716465573,-1.04375614571818,-4.415496250494446,0.0,0.8925371728972533,-0.00042554473908521927,0.08778423139177487
1400.0,0.9771286008844492,-0.0002041528913670831,-1.0475590072850007,-4.450110385072749,0.0,0.8926521738712025,-0.00042775261536879785,0.08778735935054376
1404.0,0.9771257850803337,-0.0002053328983573384,-1.0513770393297417,-4.484872005042122,0.0,0.8927671678744191,-0.0004299582189589974,0.08779048524094521
1408.0,0.9771229473587929,-0.00020651720269494265,-1.0552103449835801,-4.519780984055081,0.0,0.8928821548712838,-0.00043216148922346314,0.08779360899114856
1412.0,0.97712008762739,-0.00020770582156305682,-1.0590590271636322,-4.55483719201758,0.0,0.892997134826003,-0.000434362365549817,0.08779673052940093
1416.0,0.977117205793772,-0.00020889877225930254,-1.062923188567625,-4.5900404950920635,0.0,0.8931121077026106,-0.00043656078734724747,0.0877998497840293
1420.0,0.9771143017656724,-0.00021009607219550226,-1.0668029316685892,-4.625390755700619,0.0,0.8932270734649677,-0.0004387566940479509,0.08780296668344198
1424.0,0.9771113754509133,-0.0002112977388974136,-1.070698358709553,-4.660887832528235,0.0,0.8933420320767625,-0.00044095002510873655,0.08780608115613048
1428.0,0.977108426757408,-0.0002125037900044576,-1.0746095716982407,-4.696531580526141,0.0,0.8934569835015118,-0.00044314072001246845,0.08780919313067133
1432.0,0.9771054555931632,-0.0002137142432694411,-1.078536672401783,-4.732321850915251,0.0,0.8935719277025597,-0.00044532871826965506,0.08781230253572761
1436.0,0.9771024618662812,-0.00021492911655827292,-1.0824797623414364,-4.768258491189697,0.0,0.8936868646430791,-0.0004475139594199477,0.08781540930005086
1440.0,0.9770994454849627,-0.0002161484278496744,-1.0864389427873091,-4.804341345120464,0.0,0.8938017942860713,-0.0004496963830337095,0.08781851335248281
1444.0,0.9770964063575085,-0.00021737219523488367,-1.0904143147530914,-4.840570252759111,0.0,0.8939167165943676,-0.00045187592871347805,0.08782161462195696
1448.0,0.9770933443923222,-0.0002186004369173541,-1.0944059789908036,-4.876945050441597,0.0,0.8940316315306275,-0.0004540525360955703,0.08782471303750049
1452.0,0.9770902594979126,-0.00021983317121244692,-1.0984140359855465,-4.9134655707921935,0.0,0.8941465390573414,-0.0004562261448515029,0.08782780852823588
1456.0,0.9770871515828959,-0.00022107041654711768,-1.1024385859502597,-4.950131642727496,0.0,0.8942614391368297,-0.00045839669468962415,0.08783090102338258
1460.0,0.9770840205559982,-0.00022231219145959696,-1.1064797288204928,-4.986943091460528,0.0,0.8943763317312426,-0.00046056412535659875,0.08783399045225898
1464.0,0.9770808663260572,-0.0002235585145990652,-1.110537564249187,-5.023899738504945,0.0,0.8944912168025623,-0.00046272837663893405,0.0878370767442838
1468.0,0.9770776888020254,-0.00022480940472532153,-1.114612191601463,-5.061001401679321,0.0,0.8946060943126006,-0.0004648893883645281,0.087840159828978
1472.0,0.9770744878929718,-0.00022606488070844668,-1.1187037099494193,-5.098247895111541,0.0,0.8947209642230031,-0.0004670471004041601,0.08784323963596644
1476.0,0.9770712635080845,-0.00022732496152846015,-1.1228122180669422,-5.135639029243281,0.0,0.8948358264952463,-0.00046920145267301836,0.08784631609497962
1480.0,0.9770680155566729,-0.0002285896662749715,-1.126937814424526,-5.173174610834589,0.0,0.894950681090639,-0.00047135238513231685,0.08784938913585529
1484.0,0.97706474394817,-0.00022985901414682567,-1.1310805971841011,-5.2108544429685475,0.0,0.895065527970324,-0.0004734998377906754,0.08785245868854029
1488.0,0.9770614485921348,-0.00023113302445174264,-1.135240664193877,-5.248678325056043,0.0,0.8951803670952757,-0.0004756437507057783,0.08785552468309211
1492.0,0.9770581293982545,-0.00023241171660595106,-1.1394181129831904,-5.2866460528406245,0.0,0.8952951984263037,-0.00047778406398579006,0.08785858704968072
1496.0,0.9770547862763469,-0.00023369511013381623,-1.1436130407573712,-5.324757418403449,0.0,0.8954100219240512,-0.00047992071779100014,0.08786164571858997
1500.0,0.9770514191363625,-0.00023498322466746226,-1.147825544392614,-5.3630122101683275,0.0,0.895524837548996,-0.0004820536523352379,0.0878647006202198
1504.0,0.9770480278883871,-0.00023627607994638838,-1.1520557204308643,-5.401410212906868,0.0,0.8956396452614505,-0.0004841828078874622,0.08786775168508733
1508.0,0.9770446124426437,-0.00023757369581707948,-1.1563036650747178,-5.439951207743703,0.0,0.8957544450215638,-0.0004863081247732595,0.08787079884382899
1512.0,0.9770411727094953,-0.00023887609223261102,-1.1605694741823223,-5.478634972161807,0.0,0.8958692367893194,-0.0004884295433763708,0.08787384202720197
1516.0,0.9770377085994466,-0.00024018328925224798,-1.1648532432623058,-5.517461280007926,0.0,0.8959840205245386,-0.0004905470041402601,0.08787688116608595
1520.0,0.9770342200231468,-0.00024149530704103828,-1.169155067468708,-5.556429901498077,0.0,0.8960987961868788,-0.0004926604475695504,0.08787991619148473
1524.0,0.9770307068913915,-0.00024281216586940035,-1.1734750415959228,-5.595540603223155,0.0,0.8962135637358345,-0.000494769814231606,0.08788294703452798
1528.0,0.9770271691151252,-0.00024413388611270508,-1.1778132600736602,-5.634793148154625,0.0,0.8963283231307391,-0.0004968750447580589,0.08788597362647274
1532.0,0.9770236066054434,-0.00024546048825085205,-1.182169816961915,-5.674187295650309,0.0,0.8964430743307633,-0.0004989760798462935,0.08788899589870537
1536.0,0.977020019273595,-0.0002467919928678401,-1.186544805945954,-5.713722801460269,0.0,0.8965578172949168,-0.0005010728602609799,0.08789201378274278
1540.0,0.9770164070309847,-0.0002481284206513321,-1.19093832033131,-5.753399417732772,0.0,0.8966725519820498,-0.0005031653268356022,0.0878950272102345
1544.0,0.9770127697891746,-0.0002494697923922144,-1.1953504530387948,-5.793216893020359,0.0,0.8967872783508504,-0.0005052534204739826,0.08789803611296412
