t,latitude,longitude,velocity_x_ref,velocity_y_ref,velocity_z_ref,heading,pitch,roll
4.0,0.9773843811169856,-3.5820478741894505e-09,-0.003190367047626985,2.5646005319401866e-07,0.0,0.8029678290036375,9.999342108991293e-05,0.08704983870529676
8.0,0.9773843811185068,-1.0746143642486842e-08,-0.00638073411299294,2.4229437687449376e-06,0.0,0.8030841991156511,9.997513275233524e-05,0.08704986051694852
12.0,0.9773843811221212,-2.149219816761423e-08,-0.00957102178782062,5.756866249334049e-06,0.0,0.8032005662503562,9.994513194723518e-05,0.08704989733392748
16.0,0.9773843811280956,-3.582003404936001e-08,-0.012761151460298067,9.515539090211828e-06,0.0,0.8033169304047508,9.990341675684069e-05,0.08704994915474802
20.0,0.97738438113623,-5.3729386521088305e-08,-0.015951045317090636,1.2956189309810011e-05,0.0,0.8034332915759071,9.984998555253756e-05,0.08705001597755371
24.0,0.9773843811458587,-7.521990434844596e-08,-0.01914062634530925,1.5335978270423383e-05,0.0,0.8035496497609707,9.978483699509544e-05,0.08705009780011758
28.0,0.9773843811558489,-1.0029115073023431e-07,-0.022329818334449608,1.5912020613359814e-05,0.0,0.803666004957158,9.970797003488637e-05,0.08705019461984229
32.0,0.9773843811646019,-1.2894260420141124e-07,-0.025518545878300457,1.3941403193886004e-05,0.0,0.8037823571617565,9.961938391209566e-05,0.08705030643376022
36.0,0.9773843811700523,-1.6117365953817924e-07,-0.028706734376812613,8.68120401372987e-06,0.0,0.8038987063721228,9.951907815692568e-05,0.08705043323853391
40.0,0.9773843811696684,-1.9698362866512996e-07,-0.03189431003794151,-6.114888351174126e-07,0.0,0.8040150525856827,9.940705258979266e-05,0.08705057503045607
44.0,0.9773843811604519,-2.3637174156440098e-07,-0.035081199879450464,-1.4679558234411441e-05,0.0,0.8041313957999281,9.928330732151617e-05,0.08705073180544974
48.0,0.9773843811389382,-2.7933714718681125e-07,-0.03826733173068392,-3.426583909551326e-05,0.0,0.8042477360124174,9.914784275350119e-05,0.0870509035590688
52.0,0.9773843811011965,-3.25878914364936e-07,-0.04145263423430588,-6.011309941954916e-05,0.0,0.8043640732207736,9.900065957791455e-05,0.08705109028649796
56.0,0.9773843810428295,-3.7599603272808595e-07,-0.04463703684800699,-9.296402135478726e-05,0.0,0.8044804074226835,9.884175877784997e-05,0.08705129198255307
60.0,0.9773843809589738,-4.296874136191476e-07,-0.04782046984617273,-0.00013356118225746694,0.0,0.8045967386158964,9.867114162749262e-05,0.08705150864168153
64.0,0.9773843808442998,-4.869518910132536e-07,-0.05100286432152481,-0.00018264703574677864,0.0,0.8047130667982233,9.848880969226805e-05,0.08705174025796225
68.0,0.9773843806930118,-5.477882224382424e-07,-0.0541841521867254,-0.00024096389277177395,0.0,0.8048293919675349,9.829476482899246e-05,0.08705198682510627
72.0,0.9773843804988483,-6.121950898968668e-07,-0.05736426617594567,-0.0003092539026684675,0.0,0.8049457141217615,9.80890091860076e-05,0.08705224833645678
76.0,0.9773843802550819,-6.801711007907178e-07,-0.06054313984640435,-0.0003882590342298012,0.0,0.8050620332588907,9.787154520331717e-05,0.08705252478498955
80.0,0.9773843799545193,-7.517147888458278e-07,-0.0637207075798745,-0.0004787210567729456,0.0,0.805178349376967,9.764237561270408e-05,0.0870528161633132
84.0,0.9773843795895019,-8.268246150399066e-07,-0.0668969045841483,-0.000581381521208842,0.0,0.8052946624740905,9.740150343785497e-05,0.08705312246366949
88.0,0.9773843791519055,-9.054989685311801e-07,-0.07007166689447564,-0.0006969817411211168,0.0,0.805410972548416,9.714893199446617e-05,0.08705344367793376
92.0,0.9773843786331405,-9.877361675887873e-07,-0.07324493137496214,-0.0008262627738428367,0.0,0.8055272795981515,9.688466489034359e-05,0.08705377979761506
96.0,0.9773843780241527,-1.0735344605247088e-06,-0.07641663571994431,-0.0009699654015435643,0.0,0.8056435836215567,9.660870602550459e-05,0.0870541308138566
100.0,0.9773843773154224,-1.1628920266271741e-06,-0.0795867184553175,-0.0011288301123174008,0.0,0.8057598846169424,9.632105959225851e-05,0.08705449671743618
104.0,0.9773843764969655,-1.2558069770955238e-06,-0.08275511893984175,-0.001303597081279596,0.0,0.8058761825826689,9.602173007529073e-05,0.08705487749876636
108.0,0.9773843755583335,-1.3522773559764724e-06,-0.08592177736640057,-0.001495006151671292,0.0,0.8059924775171459,9.571072225173917e-05,0.087055273147895
112.0,0.9773843744886133,-1.4523011411017524e-06,-0.08908663476324107,-0.0017037968159631038,0.0,0.8061087694188293,9.538804119124977e-05,0.08705568365450553
116.0,0.9773843732764279,-1.5558762450270884e-06,-0.09224963299516893,-0.0019307081969775345,0.0,0.8062250582862219,9.505369225604636e-05,0.08705610900791741
120.0,0.9773843719099367,-1.6630005159724659e-06,-0.09541071476471308,-0.002176479029007155,0.0,0.8063413441178716,9.470768110097472e-05,0.08705654919708646
124.0,0.977384370376835,-1.7736717387636561e-06,-0.09856982361325368,-0.0024418476389516624,0.0,0.80645762691237,9.435001367354884e-05,0.08705700421060526
128.0,0.9773843686643554,-1.8878876357749647e-06,-0.10172690392212297,-0.002727551927455632,0.0,0.806573906668351,9.398069621398614e-05,0.08705747403670362
132.0,0.9773843667592671,-2.0056458678731596e-06,-0.1048819009136659,-0.003034329350061631,0.0,0.8066901833844913,9.359973525523603e-05,0.08705795866324899
136.0,0.9773843646478768,-2.126944035362538e-06,-0.10803476065226467,-0.0033629168983645057,0.0,0.806806457059506,9.320713762300424e-05,0.08705845807774679
140.0,0.9773843623160287,-2.251779678931101e-06,-0.111185430045336,-0.0037140510811895233,0.0,0.8069227276921512,9.28029104357645e-05,0.08705897226734105
144.0,0.9773843597491049,-2.3801502805977937e-06,-0.11433385684428966,-0.0040884679057655035,0.0,0.8070389952812197,9.238706110476627e-05,0.08705950121881467
148.0,0.9773843569320257,-2.512053264660776e-06,-0.11747998964545665,-0.0044869028589231705,0.0,0.8071552598255418,9.195959733403154e-05,0.08706004491858986
152.0,0.9773843538492502,-2.6474859986466778e-06,-0.12062377789097725,-0.004910090888294319,0.0,0.8072715213239828,9.152052712035238e-05,0.08706060335272885
156.0,0.9773843504847759,-2.786445794260809e-06,-0.12376517186965923,-0.005358766383530021,0.0,0.807387779775444,9.106985875327446e-05,0.08706117650693408
160.0,0.9773843468221401,-2.928929908338281e-06,-0.12690412271780174,-0.005833663157522796,0.0,0.8075040351788573,9.060760081506786e-05,0.08706176436654886
164.0,0.9773843428444196,-3.0749355437960033e-06,-0.13004058241998356,-0.006335514427659853,0.0,0.8076202875331894,9.01337621807022e-05,0.08706236691655778
168.0,0.977384338534231,-3.2244598505855137e-06,-0.13317450380981571,-0.006865052797066124,0.0,0.8077365368374358,8.964835201780933e-05,0.08706298414158727
172.0,0.9773843338737317,-3.3774999266466116e-06,-0.13630584057066605,-0.007423010235880637,0.0,0.8078527830906229,8.915137978663743e-05,0.08706361602590601
176.0,0.9773843288446198,-3.534052818861747e-06,-0.13943454723634285,-0.008010118062538702,0.0,0.8079690262918056,8.864285524000018e-05,0.08706426255342557
180.0,0.9773843234281345,-3.6941155240111286e-06,-0.14256057919174464,-0.008627106925067048,0.0,0.8080852664400656,8.812278842320829e-05,0.08706492370770086
184.0,0.977384317605057,-3.857684989728517e-06,-0.14568389267348053,-0.009274706782401701,0.0,0.8082015035345111,8.759118967402003e-05,0.0870655994719307
188.0,0.9773843113557102,-4.024758115457667e-06,-0.14880444477045515,-0.009953646885717066,0.0,0.808317737574275,8.704806962254728e-05,0.08706628982895834
192.0,0.9773843046599603,-4.195331753409365e-06,-0.1519221934244134,-0.010664655759772015,0.0,0.8084339685585145,8.649343919118395e-05,0.08706699476127203
196.0,0.9773842974972159,-4.369402709519041e-06,-0.15503709743045732,-0.011408461184273896,0.0,0.8085501964864092,8.592730959451985e-05,0.08706771425100553
200.0,0.9773842898464294,-4.546967744404909e-06,-0.15814911643752635,-0.012185790175258693,0.0,0.8086664213571597,8.534969233922982e-05,0.08706844827993877
204.0,0.9773842816860974,-4.728023574326596e-06,-0.16125821094884407,-0.012997368966491802,0.0,0.8087826431699873,8.476059922398496e-05,0.08706919682949843
208.0,0.9773842729942606,-4.912566872144223e-06,-0.16436434232233002,-0.013843922990882352,0.0,0.8088988619241322,8.416004233932906e-05,0.08706995988075836
212.0,0.9773842637485052,-5.100594268277903e-06,-0.16746747277097707,-0.014726176861920839,0.0,0.8090150776188524,8.35480340675671e-05,0.08707073741444038
216.0,0.9773842539259628,-5.292102351667611e-06,-0.1705675653631955,-0.01564485435513745,0.0,0.809131290253423,8.29245870826347e-05,0.08707152941091477
220.0,0.9773842435033112,-5.487087670733392e-06,-0.17366458402312057,-0.016600678389572635,0.0,0.8092474998271337,8.228971434996504e-05,0.08707233585020095
224.0,0.9773842324567747,-5.6855467343358676e-06,-0.17675849353088913,-0.017594371009276417,0.0,0.8093637063392897,8.164342912634605e-05,0.08707315671196802
228.0,0.9773842207621251,-5.8874760127370014e-06,-0.17984925952287945,-0.01862665336482043,0.0,0.8094799097892084,8.098574495977452e-05,0.08707399197553549
232.0,0.9773842083946815,-6.092871938561091e-06,-0.18293684849191857,-0.019698245694841385,0.0,0.8095961101762197,8.031667568929565e-05,0.08707484161987385
236.0,0.977384195329312,-6.301730907755936e-06,-0.18602122778745347,-0.02080986730759643,0.0,0.8097123074996639,7.963623544484173e-05,0.08707570562360517
240.0,0.9773841815404333,-6.514049280554158e-06,-0.18910236561568894,-0.021962236562545104,0.0,0.8098285017588908,7.894443864706483e-05,0.08707658396500391
244.0,0.9773841670020118,-6.72982338243462e-06,-0.1921802310396917,-0.023156070851956086,0.0,0.8099446929532592,7.82413000071441e-05,0.08707747662199745
248.0,0.9773841516875641,-6.949049505083928e-06,-0.19525479397946244,-0.024392086582530365,0.0,0.8100608810821345,7.752683452661242e-05,0.08707838357216682
252.0,0.9773841355701576,-7.171723907357941e-06,-0.19832602521196652,-0.025670999157057253,0.0,0.8101770661448887,7.68010574971637e-05,0.08707930479274734
256.0,0.9773841186224113,-7.397842816243294e-06,-0.20139389637113816,-0.02699352295608641,0.0,0.8102932481408982,7.606398450044314e-05,0.08708024026062938
260.0,0.9773841008164962,-7.627402427818863e-06,-0.20445837994784677,-0.02836037131963053,0.0,0.8104094270695428,7.531563140784413e-05,0.08708118995235899
264.0,0.9773840821241361,-7.860398908217145e-06,-0.2075194492898303,-0.029772256528886293,0.0,0.8105256029302055,7.455601438028902e-05,0.08708215384413862
268.0,0.9773840625166084,-8.096828394585525e-06,-0.21057707860159486,-0.031229889787987367,0.0,0.8106417757222701,7.378514986801275e-05,0.08708313191182789
272.0,0.9773840419647445,-8.336686996047367e-06,-0.21363124294427704,-0.03273398120578192,0.0,0.8107579454451213,7.300305461031866e-05,0.08708412413094423
276.0,0.9773840204389308,-8.579970794662918e-06,-0.2166819182354773,-0.03428523977763069,0.0,0.8108741120981416,7.220974563535711e-05,0.08708513047666365
280.0,0.9773839979091092,-8.826675846389971e-06,-0.21972908124905297,-0.035884373367242914,0.0,0.8109902756807121,7.140524025986445e-05,0.08708615092382155
284.0,0.977383974344778,-9.076798182044245e-06,-0.22277270961488543,-0.037532088688530627,0.0,0.81110643619221,7.058955608891748e-05,0.08708718544691327
288.0,0.9773839497149922,-9.330333808259467e-06,-0.22581278181860584,-0.03922909128749158,0.0,0.8112225936320082,6.976271101566993e-05,0.08708823402009512
292.0,0.9773839239883649,-9.587278708447082e-06,-0.22884927720128947,-0.04097608552412651,0.0,0.8113387479994739,6.892472322109905e-05,0.08708929661718491
296.0,0.9773838971330677,-9.84762884375559e-06,-0.23188217595911714,-0.04277377455437973,0.0,0.8114548992939672,6.807561117369855e-05,0.0870903732116628
300.0,0.9773838691168315,-1.0111380154029453e-05,-0.23491145914300363,-0.04462286031211284,0.0,0.8115710475148403,6.721539362922545e-05,0.08709146377667215
304.0,0.977383839906947,-1.0378528558767519e-05,-0.23793710865818413,-0.04652404349109998,0.0,0.8116871926614355,6.63440896303964e-05,0.08709256828502021
308.0,0.977383809470266,-1.0649069958080964e-05,-0.2409591072637812,-0.048478023527066,0.0,0.8118033347330859,6.546171850659634e-05,0.08709368670917902
312.0,0.9773837777732021,-1.092300023365068e-05,-0.24397743857232448,-0.05048549857974623,0.0,0.8119194737291114,6.456829987356262e-05,0.08709481902128606
316.0,0.9773837447817311,-1.1200315249684084e-05,-0.24699208704924372,-0.05254716551497859,0.0,0.8120356096488205,6.366385363307989e-05,0.08709596519314523
320.0,0.977383710461392,-1.1481010853871315e-05,-0.2500030380123266,-0.05466371988683015,0.0,0.8121517424915067,6.27483999726642e-05,0.08709712519622756
324.0,0.9773836747772885,-1.176508287834077e-05,-0.2530102776311423,-0.056835855919752994,0.0,0.8122678722564491,6.18219593652248e-05,0.08709829900167207
328.0,0.9773836376940886,-1.2052527140613948e-05,-0.25601379292642995,-0.05906426649077457,0.0,0.8123839989429099,6.0884552568741545e-05,0.08709948658028666
332.0,0.9773835991760267,-1.2343339444559565e-05,-0.2590135717694574,-0.06134964311172139,0.0,0.8125001225501344,5.99362006259178e-05,0.08710068790254889
336.0,0.9773835591869036,-1.2637515581346894e-05,-0.26200960288133895,-0.0636926759114706,0.0,0.8126162430773491,5.897692486381804e-05,0.08710190293860684
340.0,0.9773835176900876,-1.2935051330398305e-05,-0.26500187583233004,-0.06609405361824375,0.0,0.8127323605237603,5.8006746893534637e-05,0.08710313165827996
344.0,0.9773834746485157,-1.3235942460340961e-05,-0.2679903810410827,-0.06855446354193173,0.0,0.8128484748885537,5.702568860979946e-05,0.08710437403106003
348.0,0.9773834300246943,-1.354018472995763e-05,-0.2709751097738623,-0.07107459155645071,0.0,0.8129645861708931,5.60337721906402e-05,0.08710563002611194
352.0,0.9773833837806999,-1.3847773889136572e-05,-0.27395605414373997,-0.0736551220821373,0.0,0.8130806943699188,5.5031020096974495e-05,0.08710689961227455
356.0,0.9773833358781803,-1.4158705679820487e-05,-0.2769332071097471,-0.07629673806817927,0.0,0.8131967994847464,5.4017455072231886e-05,0.08710818275806173
360.0,0.9773832862783555,-1.4472975836954448e-05,-0.2799065624759972,-0.07900012097508277,0.0,0.8133129015144664,5.2993100141972025e-05,0.08710947943166307
364.0,0.9773832349420185,-1.479058008943281e-05,-0.2828761148907717,-0.08176595075717256,0.0,0.8134290004581425,5.1957978613459756e-05,0.08711078960094501
368.0,0.9773831818295364,-1.5111514161045057e-05,-0.28584185984557675,-0.0845949058451332,0.0,0.81354509631481,5.0912114075286926e-05,0.08711211323345151
372.0,0.9773831269008514,-1.5435773771420537e-05,-0.2888037936741675,-0.0874876631285872,0.0,0.8136611890834756,4.98555303969265e-05,0.08711345029640519
376.0,0.9773830701154814,-1.576335463697205e-05,-0.29176191355153147,-0.09044489793870902,0.0,0.8137772787631159,4.878825172832849e-05,0.08711480075670804
380.0,0.9773830114325217,-1.609425247183826e-05,-0.294716217492849,-0.09346728403088171,0.0,0.813893365352676,4.771030249948436e-05,0.08711616458094264
384.0,0.9773829508106453,-1.6428462988824897e-05,-0.29766670435240933,-0.09655549356738585,0.0,0.8140094488510684,4.662170741999178e-05,0.08711754173537281
388.0,0.9773828882081044,-1.676598190034468e-05,-0.30061337382250697,-0.09971019710013487,0.0,0.814125529257172,4.552249147859483e-05,0.08711893218594487
392.0,0.9773828235827309,-1.710680491935598e-05,-0.3035562264322937,-0.10293206355344525,0.0,0.8142416065698315,4.441267994275556e-05,0.08712033589828827
396.0,0.9773827568919381,-1.7450927760300124e-05,-0.3064952635466001,-0.1062217602068492,0.0,0.8143576807878549,4.3292298358168254e-05,0.08712175283771681
400.0,0.9773826880927212,-1.779834614003736e-05,-0.30943048736473,-0.1095799526779458,0.0,0.8144737519100134,4.216137254832224e-05,0.08712318296922957
404.0,0.9773826171416586,-1.8149055778781393e-05,-0.312361900919216,-0.11300730490529999,0.0,0.8145898199350402,4.101992861400064e-05,0.08712462625751179
408.0,0.977382543994913,-1.8503052401032507e-05,-0.3152895080745426,-0.116504479131372,0.0,0.8147058848616293,3.986799293280497e-05,0.08712608266693596
412.0,0.9773824686082322,-1.886033173650919e-05,-0.31821331352584087,-0.1200721358854988,0.0,0.814821946688434,3.8705592158678154e-05,0.08712755216156283
416.0,0.9773823909369505,-1.9220889521078258e-05,-0.32113332279754603,-0.12371093396690992,0.0,0.8149380054140661,3.753275322140309e-05,0.08712903470514227
420.0,0.9773823109359896,-1.9584721497683427e-05,-0.32404954224202454,-0.1274215304277958,0.0,0.8150540610370944,3.6349503326085834e-05,0.08713053026111454
424.0,0.9773822285598599,-1.9951823417272307e-05,-0.3269619790381684,-0.13120458055640977,0.0,0.8151701135560446,3.5155869952657605e-05,0.08713203879261104
428.0,0.9773821437626614,-2.0322191039721744e-05,-0.32987064118995757,-0.1350607378602205,0.0,0.8152861629693968,3.3951880855357954e-05,0.08713356026245553
432.0,0.9773820564980851,-2.0695820134761553e-05,-0.3327755375249865,-0.1389906540491038,0.0,0.8154022092755848,3.273756406220384e-05,0.08713509463316506
436.0,0.9773819667194136,-2.1072706482896504e-05,-0.33567667769296294,-0.1429949790185826,0.0,0.8155182524729967,3.151294787446232e-05,0.0871366418669511
440.0,0.977381874379523,-2.145284587632661e-05,-0.33857407216417157,-0.1470743608331085,0.0,0.8156342925599704,3.027806086610758e-05,0.08713820192572053
444.0,0.9773817794308833,-2.1836234119865644e-05,-0.34146773222790905,-0.15122944570939498,0.0,0.8157503295347956,2.9032931883270988e-05,0.08713977477107669
448.0,0.9773816818255605,-2.2222867031857827e-05,-0.3443576699908787,-0.15546087799978983,0.0,0.8158663633957111,2.7777590043692977e-05,0.0871413603643205
452.0,0.9773815815152167,-2.261274044509272e-05,-0.3472438983755645,-0.15976930017569868,0.0,0.8159823941409039,2.6512064736157478e-05,0.08714295866645147
456.0,0.977381478451112,-2.3005850207718204e-05,-0.35012643111856334,-0.1641553528110485,0.0,0.8160984217685088,2.5236385619931603e-05,0.08714456963816883
460.0,0.9773813725841055,-2.3402192184151552e-05,-0.3530052827688888,-0.16861967456581065,0.0,0.8162144462766059,2.395058262417243e-05,0.08714619323987258
464.0,0.9773812638646566,-2.380176225598858e-05,-0.35588046868624607,-0.17316290216955685,0.0,0.8163304676632215,2.2654685947363126e-05,0.08714782943166464
468.0,0.9773811522428262,-2.4204556322910784e-05,-0.3587520050392692,-0.1777856704050754,0.0,0.8164464859263246,2.1348726056721445e-05,0.08714947817334988
472.0,0.9773810376682777,-2.4610570303590482e-05,-0.3616199088037339,-0.18248861209202752,0.0,0.816562501063828,2.003273368758741e-05,0.08715113942443725
476.0,0.9773809200902785,-2.5019800136593886e-05,-0.3644841977607303,-0.1872723580706594,0.0,0.8166785130735859,1.8706739842828223e-05,0.08715281314414094
480.0,0.9773807994577014,-2.5432241781282088e-05,-0.3673448904948099,-0.1921375371855571,0.0,0.816794521953393,1.7370775792236385e-05,0.08715449929138147
484.0,0.9773806757190253,-2.5847891218709927e-05,-0.37020200639209855,-0.19708477626945628,0.0,0.816910527700984,1.6024873071896474e-05,0.08715619782478676
488.0,0.9773805488223372,-2.626674445252269e-05,-0.3730555656383816,-0.20211470012709723,0.0,0.8170265303140315,1.4669063483560674e-05,0.08715790870269342
492.0,0.9773804187153325,-2.6688797509850628e-05,-0.37590558921715245,-0.20722793151913765,0.0,0.8171425297901466,1.3303379094029452e-05,0.08715963188314768
496.0,0.9773802853453177,-2.711404644220122e-05,-0.37875209890763367,-0.21242509114610858,0.0,0.8172585261268754,1.1927852234506228e-05,0.08716136732390674
500.0,0.9773801486592103,-2.754248732634919e-05,-0.3815951172827643,-0.2177067976324278,0.0,0.8173745193217002,1.0542515499938246e-05,0.08716311498243977
504.0,0.9773800086035409,-2.797411626522422e-05,-0.38443466770716006,-0.22307366751045943,0.0,0.817490509372037,9.147401748378113e-06,0.08716487481592926
508.0,0.9773798651244543,-2.8408929388796323e-05,-0.3872707743350353,-0.22852631520463237,0.0,0.8176064962752356,7.742544100322912e-06,0.08716664678127196
512.0,0.977379718167711,-2.8846922854958845e-05,-0.3901034621081029,-0.23406535301560769,0.0,0.8177224800285772,6.327975938034201e-06,0.08716843083508022
516.0,0.9773795676786882,-2.9288092850409068e-05,-0.3929327567534371,-0.23969139110449594,0.0,0.8178384606292737,4.903730904875301e-06,0.08717022693368315
520.0,0.9773794136023815,-2.9732435591526373e-05,-0.3957586847813068,-0.24540503747713596,0.0,0.8179544380744678,3.4698429046209116e-06,0.08717203503312773
524.0,0.9773792558834061,-3.017994732524792e-05,-0.3985812734829795,-0.2512068979684188,0.0,0.8180704123612306,2.026346100775348e-06,0.08717385508918005
528.0,0.9773790944659984,-3.0630624329941834e-05,-0.4014005509284952,-0.2570975762266738,0.0,0.8181863834865613,5.732749158786598e-07,0.08717568705732656
532.0,0.9773789292940167,-3.108446291627783e-05,-0.40421654596440787,-0.2630776736981046,0.0,0.8183023514473856,-8.893359692098186e-07,0.08717753089277529
536.0,0.9773787603109436,-3.154145942809528e-05,-0.4070292882114962,-0.26914778961127783,0.0,0.8184183162405547,-2.3614516160140294e-06,0.0871793865504569
540.0,0.9773785874598867,-3.2001610243268665e-05,-0.4098388080624461,-0.27530852096167735,0.0,0.818534277862845,-3.8430368291368195e-06,0.08718125398502617
544.0,0.97737841068358,-3.246491177457036e-05,-0.41264513667949926,-0.28156046249630196,0.0,0.8186502363109563,-5.334056157007599e-06,0.08718313315086296
548.0,0.9773782299243857,-3.2931360470530785e-05,-0.41544830599207916,-0.2879042066983302,0.0,0.8187661915815106,-6.8344738926265555e-06,0.08718502400207362
552.0,0.9773780451242955,-3.340095281629579e-05,-0.41824834869437805,-0.29434034377183443,0.0,0.8188821436710524,-8.344254074260258e-06,0.08718692649249214
556.0,0.9773778562249318,-3.3873685334481344e-05,-0.4210452982429206,-0.30086946162655437,0.0,0.8189980925760458,-9.863360486218833e-06,0.0871888405756815
560.0,0.9773776631675494,-3.434955458602539e-05,-0.4238391888540917,-0.307492145862728,0.0,0.8191140382928749,-1.1391756659581066e-05,0.08719076620493482
564.0,0.9773774658930369,-3.4828557171036955e-05,-0.42663005550164207,-0.3142089797559841,0.0,0.8192299808178417,-1.2929405872978506e-05,0.08719270333327664
568.0,0.9773772643419182,-3.531068972964234e-05,-0.4294179339141575,-0.32102054424228527,0.0,0.8193459201471669,-1.4476271153348335e-05,0.08719465191346429
572.0,0.977377058454354,-3.5795948942828496e-05,-0.4322028605725001,-0.32792741790293717,0.0,0.8194618562769863,-1.603231527670012e-05,0.087196611897989
576.0,0.977376848170143,-3.628433153328343e-05,-0.43498487270722624,-0.334930176949654,0.0,0.8195777892033517,-1.759750076889297e-05,0.08719858323907734
580.0,0.9773766334287239,-3.6775834266233725e-05,-0.43776400829596535,-0.34202939520967957,0.0,0.8196937189222293,-1.9171789906423067e-05,0.08720056588869231
584.0,0.9773764141691765,-3.7270453950279006e-05,-0.4405403060607742,-0.3492256441109756,0.0,0.8198096454294989,-2.0755144717228642e-05,0.08720255979853492
588.0,0.9773761903302234,-3.7768187438223466e-05,-0.44331380546546356,-0.35651949266746547,0.0,0.8199255687209525,-2.234752698147404e-05,0.08720456492004514
592.0,0.9773759618502312,-3.826903162790432e-05,-0.4460845467128955,-0.36391150746433754,0.0,0.8200414887922932,-2.3948898232347668e-05,0.08720658120440349
596.0,0.9773757286672128,-3.877298346301715e-05,-0.4488525707422476,-0.37140225264341403,0.0,0.8201574056391351,-2.555921975690511e-05,0.08720860860253223
600.0,0.977375490718828,-3.928003993393819e-05,-0.4516179192262526,-0.3789922898885776,0.0,0.8202733192570013,-2.7178452596839333e-05,0.08721064706509671
604.0,0.9773752479423857,-3.979019807854347e-05,-0.45438063456840844,-0.3866821784112618,0.0,0.8203892296413237,-2.8806557549341082e-05,0.08721269654250656
608.0,0.9773750002748454,-4.0303454983024736e-05,-0.45714075990015807,-0.39447247493599996,0.0,0.8205051367874414,-3.044349516792814e-05,0.08721475698491726
612.0,0.9773747476528183,-4.081980778270218e-05,-0.4598983390780429,-0.4023637336860414,0.0,0.8206210406905997,-3.2089225763271004e-05,0.08721682834223125
616.0,0.9773744900125694,-4.133925366283399e-05,-0.46265341668082666,-0.41035650636902854,0.0,0.82073694134595,-3.374370940405679e-05,0.08721891056409942
620.0,0.977374227290019,-4.1861789859422535e-05,-0.46540603800658986,-0.4184513421627375,0.0,0.8208528387485482,-3.540690591781152e-05,0.08722100359992237
624.0,0.977373959420744,-4.238741366001736e-05,-0.4681562490698012,-0.4266487877008793,0.0,0.8209687328933533,-3.707877489178479e-05,0.08722310739885179
628.0,0.9773736863399799,-4.291612240451472e-05,-0.47090409659835236,-0.43494938705896896,0.0,0.8210846237752271,-3.875927567379287e-05,0.08722522190979179
632.0,0.9773734079826221,-4.3447913485953864e-05,-0.47364962803057103,-0.44335368174025863,0.0,0.8212005113889331,-4.0448367373124234e-05,0.08722734708140033
636.0,0.9773731242832275,-4.398278435130985e-05,-0.4763928915122079,-0.4518622106617336,0.0,0.8213163957291354,-4.214600886138263e-05,0.08722948286209052
640.0,0.9773728351760167,-4.452073250228296e-05,-0.4791339358933881,-0.4604755101401739,0.0,0.8214322767903981,-4.3852158773378674e-05,0.08723162920003195
644.0,0.9773725405948748,-4.506175549608466e-05,-0.48187281072554333,-0.4691941138782815,0.0,0.8215481545671836,-4.5566775508039e-05,0.08723378604315235
648.0,0.9773722404733536,-4.560585094622007e-05,-0.48460956625831103,-0.47801855295087575,0.0,0.8216640290538527,-4.7289817229269974e-05,0.08723595333913851
652.0,0.9773719347446731,-4.615301652326689e-05,-0.4873442534364074,-0.48694935579114623,0.0,0.8217799002446631,-4.9021241866901436e-05,0.08723813103543802
656.0,0.9773716233417233,-4.67032499556508e-05,-0.49007692389647595,-0.4959870481769885,0.0,0.8218957681337679,-5.076100711757154e-05,0.08724031907926061
660.0,0.9773713061970658,-4.7256549030417276e-05,-0.4928076299639057,-0.5051321532173897,0.0,0.8220116327152156,-5.25090704456529e-05,0.0872425174175795
664.0,0.9773709832429354,-4.781291159399979e-05,-0.49553642464962294,-0.5143851913388883,0.0,0.8221274939829489,-5.426538908415823e-05,0.08724472599713273
668.0,0.9773706544112416,-4.837233555298436e-05,-0.49826336164685714,-0.5237466802721058,0.0,0.8222433519308041,-5.602992003569442e-05,0.08724694476442481
672.0,0.9773703196335709,-4.893481887487045e-05,-0.5009884953278791,-0.5332171350383392,0.0,0.8223592065525087,-5.7802620073395875e-05,0.08724917366572783
676.0,0.9773699788411879,-4.950035958882812e-05,-0.5037118807407153,-0.5427970679362251,0.0,0.8224750578416825,-5.95834457418368e-05,0.08725141264708307
680.0,0.9773696319650376,-5.006895578645151e-05,-0.5064335736058307,-0.5524869885284722,0.0,0.8225909057918357,-6.137235335801676e-05,0.08725366165430251
684.0,0.9773692789357463,-5.064060562250852e-05,-0.5091536303127879,-0.5622874036286639,0.0,0.8227067503963675,-6.31692990122868e-05,0.08725592063296995
688.0,0.9773689196836244,-5.121530731568668e-05,-0.5118721079168823,-0.5721988172881249,0.0,0.8228225916485664,-6.497423856934884e-05,0.08725818952844289
692.0,0.9773685541386671,-5.1793059149335275e-05,-0.5145890641357469,-0.5822217307828674,0.0,0.8229384295416086,-6.678712766916454e-05,0.08726046828585349
696.0,0.9773681822305569,-5.237385947220351e-05,-0.517304557345935,-0.5923566426005967,0.0,0.8230542640685571,-6.860792172796846e-05,0.08726275685011038
700.0,0.977367803888665,-5.29577066991749e-05,-0.5200186465794756,-0.6026040484277945,0.0,0.8231700952223603,-7.043657593926366e-05,0.08726505516590004
704.0,0.977367419042053,-5.354459931199769e-05,-0.5227313915203983,-0.6129644411368665,0.0,0.823285922995853,-7.22730452747656e-05,0.08726736317768809
708.0,0.9773670276194752,-5.413453586001134e-05,-0.5254428525012412,-0.6234383107733693,0.0,0.8234017473817534,-7.411728448540803e-05,0.08726968082972088
712.0,0.9773666295493798,-5.472751496086908e-05,-0.5281530904995284,-0.6340261445433008,0.0,0.8235175683726633,-7.596924810234946e-05,0.0872720080660271
716.0,0.9773662247599108,-5.532353530125643e-05,-0.530862167134222,-0.6447284268004677,0.0,0.8236333859610669,-7.782889043798229e-05,0.08727434483041893
720.0,0.9773658131789099,-5.592259563760572e-05,-0.5335701446621485,-0.6555456390339206,0.0,0.8237492001393301,-7.96961655869256e-05,0.0872766910664938
724.0,0.9773653947339186,-5.652469479680655e-05,-0.5362770859744054,-0.6664782598554644,0.0,0.8238650108997003,-8.157102742706215e-05,0.08727904671763569
728.0,0.9773649693521794,-5.712983167691217e-05,-0.5389830545927348,-0.6775267649872393,0.0,0.8239808182343037,-8.34534296205342e-05,0.08728141172701674
732.0,0.9773645369606382,-5.773800524784175e-05,-0.541688114665879,-0.6886916272493806,0.0,0.8240966221351467,-8.534332561480178e-05,0.08728378603759866
736.0,0.9773640974859457,-5.834921455207852e-05,-0.5443923309659063,-0.6999733165477406,0.0,0.8242124225941134,-8.724066864365571e-05,0.08728616959213435
740.0,0.9773636508544593,-5.8963458705363763e-05,-0.5470957688845184,-0.7113722998616977,0.0,0.824328219602965,-8.914541172826874e-05,0.08728856233316919
744.0,0.9773631969922454,-5.9580736897386544e-05,-0.5497984944293244,-0.7228890412320245,0.0,0.8244440131533403,-9.105750767822961e-05,0.08729096420304275
748.0,0.9773627358250806,-6.0201048392469334e-05,-0.5525005742201008,-0.7345240017488442,0.0,0.8245598032367532,-9.297690909260473e-05,0.08729337514389021
752.0,0.977362267278454,-6.08243925302493e-05,-0.5552020754850219,-0.7462776395396531,0.0,0.824675589844593,-9.490356836101335e-05,0.08729579509764382
756.0,0.9773617912775688,-6.145076872635535e-05,-0.5579030660568627,-0.7581504097574228,0.0,0.8247913729681229,-9.683743766465854e-05,0.08729822400603458
760.0,0.9773613077473446,-6.208017647308087e-05,-0.5606036143691859,-0.7701427645687693,0.0,0.8249071525984795,-9.877846897741607e-05,0.08730066181059364
764.0,0.9773608166124188,-6.271261534005218e-05,-0.5633037894525043,-0.7822551531422103,0.0,0.8250229287266722,-0.0001007266140669172,0.0873031084526538
768.0,0.9773603177971486,-6.334808497489254e-05,-0.5660036609304082,-0.7944880216364847,0.0,0.8251387013435817,-0.00010268182449561024,0.0873055638733512
772.0,0.9773598112256131,-6.398658510388191e-05,-0.5687032990156884,-0.8068418131889598,0.0,0.82525447043996,-0.00010464405162186032,0.0873080280136267
776.0,0.977359296821615,-6.462811553261217e-05,-0.5714027745064162,-0.8193169679041095,0.0,0.825370236006429,-0.00010661324660105276,0.08731050081422746
780.0,0.9773587745086828,-6.527267614663798e-05,-0.5741021587820172,-0.8319139228420681,0.0,0.8254859980334806,-0.00010858936038666516,0.08731298221570857
784.0,0.9773582442100722,-6.592026691212321e-05,-0.5768015237993117,-0.8446331120072624,0.0,0.8256017565114753,-0.000110572343731405,0.08731547215843448
788.0,0.9773577058487686,-6.65708878764828e-05,-0.5795009420885333,-0.8574749663371194,0.0,0.8257175114306402,-0.00011256214718828238,0.08731797058258065
792.0,0.9773571593474886,-6.722453916902019e-05,-0.5822004867493329,-0.8704399136908616,0.0,0.8258332627810707,-0.00011455872111176469,0.08732047742813506
796.0,0.9773566046286822,-6.788122100156012e-05,-0.5849002314467457,-0.8835283788383628,0.0,0.8259490105527283,-0.00011656201565886975,0.08732299263489979
800.0,0.9773560416145347,-6.854093366907703e-05,-0.5876002504071529,-0.896740783449096,0.0,0.8260647547354403,-0.00011857198079031101,0.08732551614249254
804.0,0.9773554702269684,-6.920367755031873e-05,-0.5903006184142083,-0.9100775460811539,0.0,0.826180495318898,-0.00012058856627163492,0.0873280478903483
808.0,0.9773548903876451,-6.986945310842546e-05,-0.5930014108047484,-0.9235390821703517,0.0,0.8262962322926574,-0.00012261172167432475,0.08733058781772084
812.0,0.9773543020179675,-7.053826089154443e-05,-0.5957027034646787,-0.937125804019403,0.0,0.8264119656461381,-0.00012464139637699377,0.08733313586368427
816.0,0.9773537050390814,-7.121010153343962e-05,-0.5984045728248402,-0.9508381207871808,0.0,0.8265276953686213,-0.00012667753956648877,0.08733569196713481
820.0,0.9773530993718778,-7.188497575409687e-05,-0.6011070958568532,-0.9646764384780561,0.0,0.8266434214492511,-0.00012872010023907965,0.08733825606679203
824.0,0.9773524849369948,-7.256288436032435e-05,-0.6038103500689408,-0.9786411599313152,0.0,0.8267591438770323,-0.00013076902720160152,0.08734082810120077
828.0,0.9773518616548195,-7.324382824634822e-05,-0.6065144135017262,-0.9927326848106593,0.0,0.8268748626408302,-0.00013282426907263361,0.08734340800873261
832.0,0.9773512294454899,-7.392780839440354e-05,-0.6092193647240162,-1.006951409593783,0.0,0.82699057772937,-0.00013488577428365524,0.08734599572758743
836.0,0.9773505882288975,-7.461482587532047e-05,-0.6119252828285592,-1.0212977275620327,0.0,0.8271062891312356,-0.00013695349108024582,0.08734859119579508
840.0,0.9773499379246886,-7.530488184910559e-05,-0.6146322474277871,-1.0357720287901484,0.0,0.8272219968348694,-0.00013902736752324365,0.08735119435121685
844.0,0.9773492784522666,-7.599797756551841e-05,-0.6173403386495244,-1.0503747001360841,0.0,0.8273377008285714,-0.00014110735148992225,0.08735380513154735
848.0,0.9773486097307942,-7.669411436464306e-05,-0.6200496371326955,-1.0651061252309149,0.0,0.8274534011004988,-0.0001431933906752497,0.08735642347431578
852.0,0.9773479316791951,-7.739329367745507e-05,-0.6227602240229942,-1.0799666844688176,0.0,0.8275690976386646,-0.00014528543259300934,0.08735904931688783
856.0,0.9773472442161564,-7.80955170263833e-05,-0.6254721809685458,-1.0949567549971386,0.0,0.8276847904309377,-0.0001473834245770521,0.08736168259646716
860.0,0.9773465472601301,-7.880078602586686e-05,-0.6281855901155403,-1.1100767107065468,0.0,0.8278004794650419,-0.00014948731378246568,0.08736432325009703
864.0,0.9773458407293361,-7.950910238290722e-05,-0.6309005341038518,-1.12532692222126,0.0,0.827916164728555,-0.00015159704718683076,0.08736697121466193
868.0,0.977345124541763,-8.022046789761525e-05,-0.6336170960626339,-1.1407077568893638,0.0,0.8280318462089089,-0.00015371257159142097,0.08736962642688932
872.0,0.9773443986151714,-8.093488446375332e-05,-0.6363353596058998,-1.1562195787732084,0.0,0.828147523893388,-0.00015583383362241076,0.087372288823351
876.0,0.9773436628670951,-8.165235406927235e-05,-0.6390554088280777,-1.1718627486398874,0.0,0.8282631977691293,-0.00015796077973213453,0.08737495834046512
880.0,0.9773429172148433,-8.237287879684392e-05,-0.6417773282995548,-1.1876376239518056,0.0,0.8283788678231215,-0.00016009335620032855,0.08737763491449743
884.0,0.9773421615755032,-8.309646082438723e-05,-0.644501203062192,-1.2035445588573248,0.0,0.8284945340422035,-0.0001622315091352971,0.08738031848156318
888.0,0.9773413958659417,-8.382310242559104e-05,-0.647227118624834,-1.219583904181499,0.0,0.8286101964130661,-0.00016437518447525123,0.08738300897762868
892.0,0.9773406200028072,-8.45528059704305e-05,-0.6499551609587824,-1.2357560074168892,0.0,0.8287258549222485,-0.00016652432798950625,0.08738570633851302
896.0,0.9773398339025324,-8.528557392567891e-05,-0.6526854164932665,-1.2520612127144624,0.0,0.8288415095561397,-0.00016867888527974726,0.08738841049988953
900.0,0.9773390374813359,-8.602140885541421e-05,-0.6554179721108871,-1.2684998608745834,0.0,0.8289571603009769,-0.0001708388017812793,0.08739112139728769
904.0,0.9773382306552242,-8.676031342152052e-05,-0.6581529151430457,-1.2850722893380815,0.0,0.8290728071428459,-0.0001730040227643133,0.08739383896609461
908.0,0.9773374133399945,-8.750229038418433e-05,-0.6608903333653543,-1.3017788321774062,0.0,0.8291884500676795,-0.00017517449333521228,0.0873965631415567
912.0,0.977336585451236,-8.824734260238555e-05,-0.6636303149930264,-1.3186198200878725,0.0,0.8293040890612567,-0.00017735015843778557,0.08739929385878144
916.0,0.9773357469043327,-8.899547303438338e-05,-0.6663729486762534,-1.3355955803789843,0.0,0.8294197241092035,-0.00017953096285455123,0.08740203105273894
920.0,0.9773348976144649,-8.974668473819689e-05,-0.6691183234955601,-1.3527064369658506,0.0,0.8295353551969914,-0.000181716851208034,0.08740477465826371
924.0,0.9773340374966119,-9.050098087208038e-05,-0.6718665289571458,-1.369952710360684,0.0,0.8296509823099363,-0.0001839077679620418,0.08740752461005612
928.0,0.9773331664655538,-9.125836469499341e-05,-0.674617654988206,-1.3873347176643849,0.0,0.8297666054331989,-0.00018610365742295992,0.08741028084268443
932.0,0.9773322844358739,-9.201883956706563e-05,-0.6773717919322417,-1.404852772558217,0.0,0.8298822245517842,-0.00018830446374106603,0.08741304329058612
936.0,0.9773313913219607,-9.27824089500562e-05,-0.6801290305443407,-1.4225071852955653,0.0,0.8299978396505399,-0.00019051013091181046,0.08741581188806975
940.0,0.9773304870380098,-9.354907640780789e-05,-0.6828894619864582,-1.4402982626937797,0.0,0.830113450714157,-0.0001927206027771374,0.08741858656931661
944.0,0.9773295714980267,-9.431884560669594e-05,-0.6856531778226685,-1.4582263081261142,0.0,0.8302290577271683,-0.00019493582302678009,0.08742136726838245
948.0,0.9773286446158282,-9.509172031607137e-05,-0.6884202700144056,-1.4762916215137394,0.0,0.8303446606739483,-0.00019715573519960255,0.08742415391919899
952.0,0.9773277063050454,-9.586770440869906e-05,-0.6911908309156884,-1.49449449931786,0.0,0.830460259538714,-0.00019938028268490137,0.08742694645557587
956.0,0.9773267564791251,-9.66468018611903e-05,-0.6939649532683256,-1.5128352345319043,0.0,0.830575854305521,-0.00020160940872375097,0.0874297448112021
960.0,0.9773257950513325,-9.742901675443003e-05,-0.6967427301971088,-1.5313141166738125,0.0,0.8306914449582666,-0.00020384305641030207,0.08743254891964788
964.0,0.9773248219347532,-9.821435327399852e-05,-0.6995242552049928,-1.5499314317784088,0.0,0.8308070314806868,-0.00020608116869316544,0.08743535871436639
968.0,0.9773238370422953,-9.900281571058768e-05,-0.7023096221682503,-1.5686874623898626,0.0,0.8309226138563578,-0.00020832368837666112,0.08743817412869524
972.0,0.9773228402866918,-9.979440846041188e-05,-0.7050989253316234,-1.5875824875542375,0.0,0.8310381920686932,-0.00021057055812228261,0.08744099509585837
976.0,0.9773218315805027,-0.00010058913602561323,-0.7078922593034526,-1.6066167828121287,0.0,0.8311537661009448,-0.00021282172044995582,0.08744382154896765
980.0,0.9773208108361171,-0.00010138700301466135,-0.7106897190507944,-1.6257906201913954,0.0,0.831269335936204,-0.00021507711773940285,0.08744665342102469
984.0,0.9773197779657556,-0.0001021880141427477,-0.7134913998945219,-1.6451042681999732,0.0,0.8313849015573971,-0.00021733669223154752,0.08744949064492244
988.0,0.9773187328814726,-0.00010299217423217427,-0.7162973975044106,-1.6645579918187832,0.0,0.8315004629472882,-0.00021960038602981564,0.08745233315344697
992.0,0.9773176754951581,-0.00010379948821273672,-0.719107807894214,-1.684152052494727,0.0,0.8316160200884775,-0.00022186814110154428,0.08745518087927912
996.0,0.9773166057185403,-0.00010460996112210199,-0.7219227274167206,-1.7038867081337732,0.0,0.8317315729634011,-0.00022413989927931696,0.08745803375499629
1000.0,0.9773155234631875,-0.0001054235981061803,-0.7247422527588014,-1.7237622130941328,0.0,0.8318471215543304,-0.0002264156022623621,0.08746089171307408
1004.0,0.9773144286405109,-0.0001062404044194915,-0.7275664809364412,-1.7437788181795257,0.0,0.8319626658433715,-0.00022869519161792024,0.08746375468588806
1008.0,0.9773133211617662,-0.0001070603854255259,-0.7303955092897523,-1.7639367706325366,0.0,0.8320782058124655,-0.0002309786087826278,0.08746662260571546
1012.0,0.9773122009380562,-0.00010788354659709926,-0.7332294354779827,-1.7842363141280626,0.0,0.832193741443387,-0.00023326579506390173,0.08746949540473693
1016.0,0.9773110678803328,-0.0001087098935167024,-0.7360683574745064,-1.804677688766849,0.0,0.832309272717744,-0.00023555669164132035,0.08747237301503817
1020.0,0.9773099218993998,-0.00010953943187684494,-0.7389123735618037,-1.82526113106912,0.0,0.8324247996169786,-0.00023785123956802107,0.08747525536861178
1024.0,0.9773087629059144,-0.00011037216748039334,-0.741761582326424,-1.8459868739682985,0.0,0.8325403221223655,-0.00024014937977213076,0.0874781423973589
1028.0,0.9773075908103898,-0.00011120810624090344,-0.7446160826539387,-1.8668551468048127,0.0,0.8326558402150105,-0.00024245105305810386,0.087481034033091
1032.0,0.9773064055231976,-0.00011204725418294706,-0.7474759737238851,-1.8878661753200046,0.0,0.8327713538758532,-0.0002447562001081876,0.08748393020753148
1036.0,0.9773052069545699,-0.00011288961744243307,-0.7503413550046951,-1.9090201816501158,0.0,0.8328868630856636,-0.00024706476148379813,0.08748683085231758
1040.0,0.9773039950146017,-0.00011373520226692254,-0.7532123262486055,-1.930317384320381,0.0,0.8330023678250436,-0.0002493766776269369,0.08748973589900202
1044.0,0.977302769613253,-0.00011458401501593825,-0.7560889874865693,-1.9517579982391993,0.0,0.8331178680744256,-0.000251691888861627,0.0874926452790546
1048.0,0.977301530660351,-0.00011543606216126847,-0.7589714390231459,-1.9733422346924043,0.0,0.8332333638140725,-0.00025401033539528304,0.0874955589238643
1052.0,0.9773002780655926,-0.00011629135028726476,-0.761859781431381,-1.9950703013376256,0.0,0.8333488550240772,-0.00025633195732022786,0.08749847676474064
1056.0,0.9772990117385468,-0.00011714988609113426,-0.7647541155476825,-2.0169424021987448,0.0,0.8334643416843622,-0.00025865669461502117,0.08750139873291554
1060.0,0.9772977315886566,-0.00011801167638322594,-0.7676545424666755,-2.038958737660437,0.0,0.8335798237746805,-0.000260984487145958,0.08750432475954521
1064.0,0.9772964375252415,-0.00011887672808731114,-0.7705611635360499,-2.0611195044628103,0.0,0.8336953012746131,-0.0002633152746684605,0.08750725477571165
1068.0,0.9772951294574997,-0.00011974504824085825,-0.773474080351399,-2.0834248956961425,0.0,0.8338107741635696,-0.00026564899682856945,0.08751018871242461
1072.0,0.9772938072945107,-0.00012061664399530157,-0.7763933947510505,-2.1058751007956964,0.0,0.8339262424207886,-0.00026798559316432846,0.08751312650062307
1076.0,0.9772924709452371,-0.00012149152261630431,-0.7793192088108772,-2.128470305536644,0.0,0.834041706025337,-0.0002703250031072693,0.08751606807117727
1080.0,0.9772911203185273,-0.00012236969148401568,-0.7822516248391105,-2.1512106920290703,0.0,0.8341571649561085,-0.0002726671659838339,0.08751901335489035
1084.0,0.9772897553231177,-0.0001232511580933222,-0.7851907453711301,-2.1740964387130837,0.0,0.8342726191918254,-0.00027501202101687025,0.0875219622825
1088.0,0.9772883758676348,-0.000124135930054093,-0.7881366731642574,-2.1971277203540063,0.0,0.8343880687110361,-0.00027735950732704715,0.08752491478468025
1092.0,0.9772869818605979,-0.00012502401509141933,-0.7910895111925302,-2.2203047080376686,0.0,0.834503513492116,-0.00027970956393431233,0.08752787079204333
1096.0,0.9772855732104211,-0.00012591542104584802,-0.7940493626414732,-2.243627569165793,0.0,0.8346189535132675,-0.0002820621297593937,0.08753083023514126
1100.0,0.9772841498254157,-0.00012681015587360925,-0.7970163309028541,-2.2670964674514695,0.0,0.8347343887525203,-0.0002844171436252571,0.08753379304446772
1104.0,0.9772827116137924,-0.00012770822764683818,-0.7999905195694373,-2.290711562914728,0.0,0.834849819187728,-0.0002867745442585329,0.08753675915045973
1108.0,0.9772812584836641,-0.00012860964455379065,-0.8029720324297231,-2.3144730118782038,0.0,0.8349652447965709,-0.0002891342702910334,0.08753972848349943
1112.0,0.9772797903430476,-0.0001295144148990531,-0.805960973462683,-2.338380966962898,0.0,0.8350806655565555,-0.00029149626026120254,0.08754270097391584
1116.0,0.9772783070998662,-0.00013042254710374636,-0.8089574468324827,-2.362435577084032,0.0,0.8351960814450127,-0.0002938604526156471,0.08754567655198651
1120.0,0.9772768086619522,-0.0001313340497057235,-0.8119615568832007,-2.3866369874469915,0.0,0.8353114924390984,-0.0002962267857105394,0.08754865514793946
1124.0,0.977275294937049,-0.00013224893135976179,-0.8149734081335337,-2.4109853395433762,0.0,0.8354268985157937,-0.00029859519781317147,0.08755163669195476
1128.0,0.9772737658328134,-0.0001331672008377486,-0.8179931052715016,-2.4354807711471333,0.0,0.8355422996519042,-0.0003009656271033978,0.0875546211141664
1132.0,0.9772722212568182,-0.00013408886702886126,-0.8210207531491375,-2.4601234163107852,0.0,0.8356576958240596,-0.00030333801167516285,0.08755760834466399
1136.0,0.9772706611165544,-0.00013501393893974105,-0.8240564567771752,-2.484913405361764,0.0,0.8357730870087134,-0.0003057122895379643,0.08756059831349451
1140.0,0.9772690853194331,-0.0001359424256946611,-0.8271003213197318,-2.509850864898828,0.0,0.8358884731821435,-0.000308088398618387,0.087563590950664
1144.0,0.9772674937727888,-0.00013687433653568812,-0.8301524520889723,-2.5349359177885793,0.0,0.8360038543204515,-0.00031046627676157364,0.0875665861861395
1148.0,0.9772658863838808,-0.00013780968082283842,-0.833212954539781,-2.5601686831620767,0.0,0.836119230399562,-0.0003128458617327312,0.08756958394985064
1152.0,0.9772642630598962,-0.00013874846803422767,-0.8362819342644179,-2.5855492764115393,0.0,0.8362346013952238,-0.0003152270912186498,0.08757258417169148
1156.0,0.977262623707952,-0.00013969070776621463,-0.8393594969871705,-2.61107780918715,0.0,0.8363499672830075,-0.00031760990282920853,0.08757558678152218
1160.0,0.9772609682350973,-0.00014063640973353887,-0.8424457485590036,-2.6367543893939547,0.0,0.8364653280383082,-0.00031999423409889585,0.08757859170917086
1164.0,0.9772592965483159,-0.0001415855837694525,-0.8455407949521948,-2.662579121188849,0.0,0.8365806836363421,-0.00032238002248830027,0.08758159888443531
1168.0,0.9772576085545285,-0.00014253823982584562,-0.8486447422549706,-2.6885521049776733,0.0,0.8366960340521493,-0.00032476720538564464,0.08758460823708471
1172.0,0.977255904160595,-0.000143494387973366,-0.8517576966661377,-2.714673437412389,0.0,0.8368113792605921,-0.0003271557201083056,0.0875876196968614
1176.0,0.9772541832733175,-0.00014445403840153247,-0.8548797644897059,-2.740943211388365,0.0,0.836926719236355,-0.0003295455039043333,0.0875906331934827
1180.0,0.9772524457994415,-0.0001454172014188422,-0.8580110521295053,-2.7673615160417477,0.0,0.8370420539539445,-0.00033193649395398423,0.08759364865664258
1184.0,0.9772506916456591,-0.00014638388745287208,-0.8611516660837991,-2.7939284367469317,0.0,0.8371573833876891,-0.00033432862737124887,0.08759666601601351
1188.0,0.9772489207186115,-0.00014735410705037384,-0.8643017129398968,-2.8206440551141276,0.0,0.8372727075117399,-0.0003367218412053776,0.0875996852012481
1192.0,0.9772471329248905,-0.00014832787087736316,-0.8674612993687563,-2.8475084489870235,0.0,0.8373880263000693,-0.00033911607244237906,0.08760270614198094
1196.0,0.9772453281710418,-0.00014930518971920264,-0.8706305321195809,-2.8745216924405437,0.0,0.8375033397264714,-0.0003415112580066379,0.08760572876783035
1200.0,0.9772435063635668,-0.0001502860744806786,-0.8738095180144203,-2.9016838557787032,0.0,0.837618647764562,-0.00034390733476238503,0.08760875300840006
1204.0,0.9772416674089252,-0.0001512705361860719,-0.8769983639427604,-2.9289950055325567,0.0,0.8377339503877786,-0.00034630423951523845,0.08761177879328104
1208.0,0.977239811213537,-0.0001522585859792226,-0.8801971768561115,-2.9564552044582464,0.0,0.8378492475693797,-0.0003487019090138061,0.08761480605205323
1212.0,0.9772379376837855,-0.00015325023512358834,-0.8834060637625936,-2.9840645115351445,0.0,0.8379645392824459,-0.0003511002799511496,0.08761783471428734
1216.0,0.9772360467260194,-0.00015424549500229687,-0.8866251317215175,-3.0118229819640905,0.0,0.8380798254998778,-0.0003534992889664157,0.08762086470954651
1220.0,0.9772341382465548,-0.00015524437711819216,-0.8898544878379634,-3.0397306671657285,0.0,0.8381951061943986,-0.0003558988726463131,0.08762389596738808
1224.0,0.9772322121516782,-0.00015624689309387467,-0.8930942392573583,-3.0677876147789376,0.0,0.8383103813385514,-0.0003582989675266751,0.08762692841736544
1228.0,0.9772302683476483,-0.00015725305467173518,-0.8963444931600464,-3.0959938686593604,0.0,0.8384256509047017,-0.0003606995100940537,0.08762996198902966
1232.0,0.9772283067406987,-0.00015826287371398272,-0.8996053567558603,-3.1243494688780262,0.0,0.8385409148650345,-0.0003631004367872763,0.08763299661193132
1236.0,0.9772263272370404,-0.00015927636220266627,-0.9028769372786908,-3.1528544517200716,0.0,0.8386561731915577,-0.00036550168399895585,0.08763603221562222
1240.0,0.9772243297428639,-0.00016029353223969025,-0.9061593419810495,-3.1815088496835586,0.0,0.8387714258560987,-0.00036790318807705414,0.08763906872965718
1244.0,0.9772223141643416,-0.000161314396046824,-0.909452678128637,-3.2103126914783875,0.0,0.838886672830306,-0.00037030488532650434,0.08764210608359571
1248.0,0.9772202804076302,-0.00016233896596570498,-0.9127570529949028,-3.2392660020253086,0.0,0.8390019140856501,-0.00037270671201069584,0.08764514420700378
1252.0,0.9772182283788734,-0.00016336725445783592,-0.9160725738556069,-3.268368802455029,0.0,0.8391171495934211,-0.0003751086043531129,0.08764818302945562
1256.0,0.9772161579842037,-0.0001643992741045757,-0.9193993479833807,-3.2976211101074124,0.0,0.8392323793247312,-0.0003775104985388741,0.0876512224805354
1260.0,0.9772140691297454,-0.00016543503760712425,-0.9227374826422844,-3.3270229385307832,0.0,0.8393476032505128,-0.00037991233071625255,0.08765426248983907
1264.0,0.9772119617216164,-0.00016647455778650113,-0.9260870850823654,-3.356574297481321,0.0,0.8394628213415195,-0.0003823140369983333,0.08765730298697594
1268.0,0.977209835665931,-0.000167517847583518,-0.9294482625342165,-3.386275192922556,0.0,0.8395780335683257,-0.00038471555346453434,0.08766034390157057
1272.0,0.9772076908688021,-0.000168564920058745,-0.9328211222035326,-3.4161256270249583,0.0,0.8396932399013273,-0.00038711681616216683,0.0876633851632645
1276.0,0.9772055272363437,-0.0001696157883924709,-0.9362057712656678,-3.4461255981656223,0.0,0.8398084403107408,-0.00038951776110805915,0.08766642670171788
1280.0,0.9772033446746731,-0.00017067046588465715,-0.9396023168601882,-3.4762751009280524,0.0,0.8399236347666039,-0.00039191832429013207,0.08766946844661129
1284.0,0.9772011430899133,-0.0001717289659548857,-0.9430108660854349,-3.506574126102044,0.0,0.8400388232387752,-0.0003943184416689045,0.08767251032764753
1288.0,0.9771989223881957,-0.00017279130214230065,-0.9464315259930786,-3.537022660683659,0.0,0.8401540056969353,-0.0003967180491791724,0.08767555227455323
1292.0,0.9771966824756622,-0.00017385748810554397,-0.9498644035826763,-3.567620687875296,0.0,0.8402691821105852,-0.0003991170827315496,0.08767859421708067
1296.0,0.9771944232584673,-0.0001749275376226847,-0.9533096057962318,-3.598368187085869,0.0,0.8403843524490476,-0.00040151547821400065,0.0876816360850095
1300.0,0.9771921446427813,-0.00017600146459114232,-0.9567672395127534,-3.629265133931067,0.0,0.840499516681467,-0.00040391317149352825,0.08768467780814848
1304.0,0.9771898465347918,-0.00017707928302760378,-0.9602374115428172,-3.6603115002337203,0.0,0.8406146747768085,-0.00040631009841769837,0.08768771931633719
1308.0,0.9771875288407067,-0.00017816100706793446,-0.9637202286231289,-3.6915072540242604,0.0,0.8407298267038595,-0.00040870619481621616,0.0876907605394477
1312.0,0.9771851914667563,-0.00017924665096708293,-0.9672157974110873,-3.7228523595412772,0.0,0.8408449724312292,-0.0004111013965025638,0.08769380140738652
1316.0,0.9771828343191956,-0.00018033622909897958,-0.9707242244793509,-3.7543467772321737,0.0,0.8409601119273477,-0.00041349563927553946,0.08769684185009599
1320.0,0.977180457304307,-0.00018142975595642917,-0.9742456163104044,-3.785990463753918,0.0,0.8410752451604679,-0.00041588885892090364,0.08769988179755628
1324.0,0.9771780603284025,-0.0001825272461509971,-0.9777800792911318,-3.817783371973885,0.0,0.8411903720986647,-0.00041828099121290466,0.08770292117978709
1328.0,0.9771756432978258,-0.00018362871441288974,-0.9813277197073869,-3.849725450970804,0.0,0.8413054927098351,-0.0004206719719159861,0.08770595992684917
1332.0,0.9771732061189553,-0.00018473417559082832,-0.9848886437385677,-3.8818166460358,0.0,0.8414206069616981,-0.00042306173678621593,0.08770899796884621
1336.0,0.9771707486982059,-0.00018584364465191704,-0.9884629574521991,-3.9140568986735267,0.0,0.8415357148217952,-0.00042545022157304183,0.08771203523592656
1340.0,0.9771682709420315,-0.0001869571366815048,-0.9920507667985095,-3.9464461466034053,0.0,0.8416508162574907,-0.00042783736202081825,0.08771507165828486
1344.0,0.977165772756928,-0.0001880746668830409,-0.995652177605019,-3.9789843237609497,0.0,0.8417659112359717,-0.0004302230938704023,0.08771810716616389
1348.0,0.9771632540494344,-0.00018919625057792458,-0.9992672955711254,-4.011671360299195,0.0,0.8418809997242483,-0.0004326073528607561,0.08772114168985602
1352.0,0.9771607147261365,-0.00019032190320534845,-1.0028962262626964,-4.044507182590221,0.0,0.8419960816891535,-0.0004349900747305641,0.08772417515970524
1356.0,0.9771581546936686,-0.00019145164032213587,-1.0065390751066645,-4.077491713226771,0.0,0.8421111570973436,-0.0004373711952198223,0.08772720750610873
1360.0,0.9771555738587159,-0.00019258547760257213,-1.0101959473856306,-4.110624871023968,0.0,0.8422262259152987,-0.0004397506500714464,0.0877302386595184
1364.0,0.9771529721280168,-0.00019372343083822954,-1.013866948232467,-4.143906571021125,0.0,0.8423412881093224,-0.0004421283750328636,0.08773326855044289
1368.0,0.9771503494083655,-0.0001948655159377865,-1.0175521826249234,-4.177336724483657,0.0,0.8424563436455416,-0.0004445043058576546,0.08773629710944915
1372.0,0.9771477056066146,-0.0001960117489268404,-1.0212517553802436,-4.210915238905079,0.0,0.8425713924899085,-0.00044687837830708157,0.087739324267164
1376.0,0.9771450406296766,-0.00019716214594771433,-1.0249657711497806,-4.244642018009115,0.0,0.8426864346081988,-0.0004492505281517873,0.08774234995427603
1380.0,0.9771423543845271,-0.00019831672325925802,-1.028694334413626,-4.27851696175189,0.0,0.8428014699660127,-0.00045162069117332275,0.08774537410153725
1384.0,0.9771396467782071,-0.0001994754972366424,-1.0324375494752331,-4.312539966324226,0.0,0.8429164985287751,-0.000453988803165818,0.08774839663976462
1388.0,0.9771369177178246,-0.00020063848437114814,-1.036195520456056,-4.346710924154028,0.0,0.8430315202617368,-0.0004563547999375382,0.08775141749984203
1392.0,0.977134167110558,-0.00020180570126994836,-1.0399683512901872,-4.381029723908767,0.0,0.8431465351299731,-0.0004587186173125061,0.08775443661272177
1396.0,0.9771313948636576,-0.00020297716465588492,-1.0437561457190068,-4.41549625049807,0.0,0.8432615430983842,-0.0004610801911321465,0.08775745390942621
1400.0,0.9771286008844486,-0.00020415289136723895,-1.0475590072858314,-4.45011038507639,0.0,0.8433765441316977,-0.0004634394572568133,0.08776046932104961
1404.0,0.9771257850803331,-0.0002053328983574952,-1.0513770393305768,-4.484872005045777,0.0,0.8434915381944658,-0.00046579635156751754,0.08776348277875964
1408.0,0.9771229473587923,-0.0002065172026951004,-1.0552103449844201,-4.519780984058752,0.0,0.8436065252510675,-0.00046815080996741814,0.08776649421379942
1412.0,0.9771200876273894,-0.00020770582156321552,-1.0590590271644769,-4.554837192021266,0.0,0.8437215052657085,-0.00047050276838348843,0.0877695035574886
1416.0,0.9771172057937715,-0.0002088987722594622,-1.062923188568474,-4.590040495095763,0.0,0.8438364782024214,-0.00047285216276812586,0.08777251074122566
1420.0,0.9771143017656718,-0.00021009607219566286,-1.0668029316694434,-4.625390755704333,0.0,0.8439514440250659,-0.0004751989291007882,0.08777551569648905
1424.0,0.9771113754509128,-0.00021129773889757514,-1.0706983587104122,-4.660887832531964,0.0,0.8440664026973288,-0.00047754300338952215,0.08777851835483926
1428.0,0.9771084267574075,-0.0002125037900046201,-1.0746095716991033,-4.696531580529885,0.0,0.8441813541827254,-0.0004798843216726617,0.0877815186479202
1432.0,0.9771054555931626,-0.00021371424326960457,-1.0785366724026497,-4.732321850919009,0.0,0.8442962984445987,-0.0004822228200203832,0.08778451650746108
1436.0,0.9771024618662807,-0.00021492911655843737,-1.0824797623423075,-4.768258491193469,0.0,0.8444112354461198,-0.00048455843453634956,0.08778751186527797
1440.0,0.9770994454849622,-0.00021614842784983983,-1.0864389427881838,-4.80434134512425,0.0,0.8445261651502894,-0.00048689110135927876,0.08779050465327541
1444.0,0.9770964063575079,-0.0002173721952350501,-1.0904143147539718,-4.840570252762912,0.0,0.8446410875199369,-0.0004892207566646373,0.08779349480344807
1448.0,0.9770933443923216,-0.00021860043691752153,-1.0944059789916898,-4.876945050445413,0.0,0.8447560025177203,-0.0004915473366661585,0.08779648224788256
1452.0,0.9770902594979121,-0.00021983317121261533,-1.0984140359864367,-4.913465570796024,0.0,0.8448709101061292,-0.0004938707776174952,0.08779946691875885
1456.0,0.9770871515828954,-0.00022107041654728708,-1.1024385859511538,-4.950131642731342,0.0,0.8449858102474818,-0.0004961910158138291,0.08780244874835219
1460.0,0.9770840205559976,-0.00022231219145976737,-1.106479728821392,-4.986943091464389,0.0,0.8451007029039278,-0.0004985079875934876,0.08780542766903437
1464.0,0.9770808663260566,-0.00022355851459923665,-1.1105375642500905,-5.02389973850882,0.0,0.8452155880374465,-0.0005008216293395187,0.08780840361327576
1468.0,0.9770776888020248,-0.000224809404725494,-1.114612191602371,-5.06100140168321,0.0,0.8453304656098498,-0.0005031318774813636,0.08781137651364661
1472.0,0.9770744878929712,-0.00022606488070862015,-1.118703709950332,-5.098247895115444,0.0,0.8454453355827812,-0.0005054386684964108,0.08781434630281898
1476.0,0.9770712635080839,-0.00022732496152863465,-1.1228122180678595,-5.135639029247198,0.0,0.8455601979177154,-0.0005077419389116475,0.08781731291356812
1480.0,0.9770680155566723,-0.00022858966627514702,-1.1269378144254472,-5.173174610838519,0.0,0.8456750525759601,-0.0005100416253052146,0.08782027627877427
1484.0,0.9770647439481694,-0.00022985901414700224,-1.1310805971850275,-5.210854442972491,0.0,0.8457898995186565,-0.0005123376643080646,0.08782323633142415
1488.0,0.9770614485921343,-0.00023113302445192024,-1.1352406641948078,-5.248678325060002,0.0,0.8459047387067776,-0.0005146299926055494,0.08782619300461264
1492.0,0.977058129398254,-0.0002324117166061297,-1.1394181129841265,-5.286646052844598,0.0,0.8460195701011313,-0.0005169185469390322,0.08782914623154447
1496.0,0.9770547862763463,-0.00023369511013399594,-1.1436130407583123,-5.3247574184074375,0.0,0.8461343936623592,-0.0005192032641075101,0.08783209594553568
1500.0,0.977051419136362,-0.00023498322466764302,-1.14782554439356,-5.363012210172333,0.0,0.8462492093509377,-0.0005214840809691756,0.08783504208001533
1504.0,0.9770480278883865,-0.0002362760799465702,-1.152055720431816,-5.401410212910889,0.0,0.8463640171271783,-0.0005237609344430673,0.08783798456852716
1508.0,0.9770446124426432,-0.00023757369581726238,-1.1563036650756733,-5.439951207747737,0.0,0.8464788169512271,-0.0005260337615106606,0.08784092334473093
1512.0,0.9770411727094948,-0.00023887609223279498,-1.1605694741832817,-5.478634972165856,0.0,0.8465936087830676,-0.0005283024992174691,0.0878438583424044
1516.0,0.977037708599446,-0.000240183289252433,-1.1648532432632681,-5.51746128001199,0.0,0.8467083925825183,-0.0005305670846746406,0.08784678949544461
1520.0,0.9770342200231462,-0.00024149530704122436,-1.1691550674696727,-5.556429901502157,0.0,0.8468231683092353,-0.0005328274550605819,0.08784971673786954
1524.0,0.9770307068913909,-0.0002428121658695875,-1.1734750415968913,-5.595540603227249,0.0,0.846937935922712,-0.0005350835476225397,0.08785264000381995
1528.0,0.9770271691151247,-0.00024413388611289332,-1.1778132600746303,-5.6347931481587334,0.0,0.8470526953822797,-0.0005373352996782187,0.08785555922756058
1532.0,0.9770236066054429,-0.0002454604882510414,-1.1821698169628894,-5.674187295654432,0.0,0.8471674466471076,-0.0005395826486173748,0.08785847434348189
1536.0,0.9770200192735945,-0.0002467919928680305,-1.1865448059469323,-5.713722801464407,0.0,0.8472821896762043,-0.0005418255319034009,0.08786138528610177
1540.0,0.9770164070309841,-0.0002481284206515236,-1.1909383203322923,-5.753399417736924,0.0,0.847396924428417,-0.0005440638870749551,0.08786429199006693
1544.0,0.9770127697891741,-0.00024946979239240705,-1.1953504530397818,-5.793216893024524,0.0,0.8475116508624333,-0.0005462976517475288,0.08786719439015454
